,city,population,lon,lat,q1yes,q1no,q1blank,q1pyes,q2yes,q2no,q2blank,q2pyes,q3yes,q3no,q3blank,q3pyes,q4yes,q4no,q4blank,q4pyes,q5yes,q5no,q5blank,q5pyes,q6yes,q6no,q6blank,q6pyes,q7yes,q7no,q7blank,q7pyes
1,ABBOT,677,-69.4523477,45.1861838,73,268,7,0.214076246,157,173,18,0.475757576,177,154,17,0.534743202,167,159,22,0.512269939,106,218,24,0.327160494,162,166,20,0.493902439,141,185,22,0.432515337
2,ACTON,2621,-70.9277544,43.5233821,508,602,15,0.457657658,592,484,49,0.550185874,607,459,59,0.569418386,613,455,57,0.573970037,450,605,70,0.426540284,648,425,52,0.603914259,572,493,60,0.537089202
3,ADDISON,1254,-67.7441645,44.6184102,199,347,11,0.364468864,258,249,50,0.50887574,279,234,44,0.543859649,300,217,40,0.580270793,223,285,49,0.438976378,252,261,44,0.49122807,299,212,46,0.585127202
4,ALBANY,515,-70.8456252,44.3325657,93,150,1,0.382716049,143,94,7,0.603375527,134,104,6,0.56302521,124,115,5,0.518828452,100,135,9,0.425531915,158,80,6,0.663865546,127,108,9,0.540425532
5,ALBION,2094,-69.4425423,44.5322902,233,709,11,0.247346072,531,383,39,0.580962801,492,415,46,0.54244763,489,413,51,0.542128603,366,532,55,0.407572383,483,424,46,0.532524807,447,458,48,0.493922652
6,ALEXANDER,480,-67.4683278,45.0886862,70,189,4,0.27027027,128,122,13,0.512,142,107,14,0.570281124,129,118,16,0.522267206,89,158,16,0.360323887,125,126,12,0.498007968,136,112,15,0.548387097
7,ALFRED,3163,-70.7161687,43.4764994,741,761,55,0.49334221,895,551,111,0.618948824,909,535,113,0.629501385,881,555,121,0.613509749,673,758,126,0.470300489,957,483,117,0.664583333,840,593,124,0.586182833
8,ALLAGASH,217,-69.0417481,47.0833103,41,111,4,0.269736842,84,53,19,0.613138686,104,35,17,0.748201439,94,44,18,0.68115942,76,57,23,0.571428571,101,37,18,0.731884058,84,51,21,0.622222222
9,ALNA,734,-69.6036567,44.1061869,232,183,4,0.559036145,250,154,15,0.618811881,223,170,26,0.567430025,218,174,27,0.556122449,190,197,32,0.490956072,253,150,16,0.627791563,229,161,29,0.587179487
10,ALTON,858,-68.7286452,45.0314546,102,268,5,0.275675676,208,152,15,0.577777778,209,148,18,0.585434174,208,148,19,0.584269663,161,195,19,0.452247191,209,148,18,0.585434174,179,178,18,0.50140056
11,AMHERST,257,-68.3640454,44.8323419,52,86,1,0.376811594,61,75,3,0.448529412,71,65,3,0.522058824,79,57,3,0.580882353,62,73,4,0.459259259,67,67,5,0.5,64,69,6,0.481203008
12,AMITY,217,-67.8493379,45.9305781,25,71,1,0.260416667,42,50,5,0.456521739,50,43,4,0.537634409,42,48,7,0.466666667,29,60,8,0.325842697,48,43,6,0.527472527,40,52,5,0.434782609
13,ANDOVER,831,-70.7511813,44.6356166,170,276,15,0.381165919,235,196,30,0.545243619,245,187,29,0.56712963,228,203,30,0.52900232,187,238,36,0.44,253,185,23,0.577625571,202,230,29,0.467592593
14,ANSON,2384,-69.8892408,44.7983618,351,641,13,0.353830645,541,423,41,0.56120332,576,383,46,0.600625652,544,419,42,0.56490135,423,537,45,0.440625,584,385,36,0.602683179,503,460,42,0.522326064
15,APPLETON,1368,-69.2508768,44.289243,341,409,5,0.454666667,397,326,32,0.549100968,399,325,31,0.551104972,368,358,29,0.506887052,293,423,39,0.409217877,406,318,31,0.560773481,372,350,33,0.515235457
16,ARROWSIC,461,-69.7781014,43.8498037,176,142,14,0.553459119,219,102,11,0.682242991,201,117,14,0.632075472,201,121,10,0.624223602,188,129,15,0.593059937,231,92,9,0.715170279,219,100,13,0.686520376
17,ARUNDEL,4394,-70.5141622,43.4243008,953,1007,21,0.48622449,1106,797,78,0.581187599,1124,765,92,0.595023822,1174,711,96,0.622811671,891,978,112,0.476725522,1153,735,93,0.610699153,1076,804,101,0.572340426
18,ASHLAND,1217,-68.3895276,46.6609983,149,362,5,0.291585127,285,204,27,0.582822086,306,178,32,0.632231405,303,183,30,0.62345679,232,248,36,0.483333333,316,172,28,0.647540984,241,245,30,0.495884774
19,ATHENS,979,-69.6728296,44.9231142,125,275,8,0.3125,219,169,20,0.56443299,220,165,23,0.571428571,220,165,23,0.571428571,161,220,27,0.422572178,210,176,22,0.544041451,191,197,20,0.492268041
20,ATKINSON,306,-69.0910809,45.1868588,41,124,7,0.248484848,74,81,17,0.477419355,76,77,19,0.496732026,71,82,19,0.464052288,52,102,18,0.337662338,69,84,19,0.450980392,59,95,18,0.383116883
21,AUBURN,23414,-70.2311655,44.0978509,4821,4707,130,0.505982368,5479,3859,320,0.586742343,5557,3754,347,0.596820964,5726,3583,349,0.615103663,4526,4710,422,0.490038978,6081,3270,307,0.65030478,5186,4090,382,0.559077188
22,AUGUSTA,18697,-69.7794897,44.3106241,3522,3972,352,0.469975981,4677,2654,515,0.63797572,4761,2535,550,0.652549342,4981,2352,513,0.679258148,4172,3102,572,0.573549629,5122,2224,500,0.697250204,4638,2662,546,0.635342466
23,AURORA,111,-68.3166626,44.8587319,13,41,3,0.240740741,20,30,7,0.4,25,24,8,0.510204082,24,25,8,0.489795918,15,32,10,0.319148936,22,27,8,0.448979592,18,30,9,0.375
24,AVON,438,-70.2711766,44.8061682,67,156,1,0.30044843,101,118,5,0.461187215,121,96,7,0.557603687,126,93,5,0.575342466,92,123,9,0.427906977,124,95,5,0.566210046,103,113,8,0.476851852
25,BAILEYVILLE,1447,-67.441251,45.1815281,147,400,7,0.268738574,284,245,25,0.536862004,336,198,20,0.629213483,337,196,21,0.632270169,250,280,24,0.471698113,331,201,22,0.622180451,295,240,19,0.551401869
26,BALDWIN,1622,-70.7781171,43.8331978,261,518,10,0.335044929,381,364,44,0.511409396,375,363,51,0.508130081,388,352,49,0.524324324,303,429,57,0.413934426,410,329,50,0.554803789,345,385,59,0.47260274
27,BANGOR,32262,-68.7712257,44.8016128,5765,5942,294,0.49244042,6965,4424,612,0.611555009,7509,3866,626,0.660131868,7682,3702,617,0.674806746,6358,4915,728,0.564002484,7654,3781,566,0.669348491,6836,4474,691,0.604420866
28,BARING,237,-67.3116215,45.133367,30,72,2,0.294117647,55,45,4,0.55,58,42,4,0.58,48,51,5,0.484848485,34,63,7,0.350515464,48,50,6,0.489795918,37,59,8,0.385416667
29,BATH,8338,-69.8206023,43.9106353,2163,1618,75,0.572070881,2459,1239,158,0.664954029,2478,1204,174,0.673003802,2457,1224,175,0.667481663,2091,1567,198,0.571623838,2710,993,153,0.731839049,2495,1164,197,0.681880295
30,BEALS,498,-67.615038,44.5198491,86,141,7,0.378854626,112,96,26,0.538461538,133,69,32,0.658415842,114,89,31,0.561576355,103,95,36,0.52020202,131,74,29,0.63902439,155,49,30,0.759803922
31,BEDDINGTON,48,-68.0619547,44.8481283,12,28,0,0.3,20,20,0,0.5,21,19,0,0.525,25,14,1,0.641025641,21,19,0,0.525,25,15,0,0.625,20,19,1,0.512820513
32,BELFAST,6679,-69.0064234,44.4259092,1655,1469,67,0.529769526,2032,964,195,0.67823765,1957,1012,222,0.659144493,1839,1099,253,0.625936011,1582,1317,292,0.545705416,2088,895,208,0.699966477,1909,1023,259,0.651091405
33,BELGRADE,3149,-69.8321003,44.4466514,625,1050,19,0.373134328,1008,635,51,0.613511869,995,645,54,0.606707317,1046,596,52,0.637028015,846,789,59,0.517431193,1023,623,48,0.621506683,954,681,59,0.583486239
34,BELMONT,913,-69.111907,44.3776275,148,272,12,0.352380952,224,190,18,0.541062802,240,172,20,0.582524272,235,177,20,0.57038835,186,220,26,0.458128079,228,182,22,0.556097561,213,198,21,0.518248175
35,BENTON,2713,-69.5508778,44.586177,475,811,15,0.369362364,700,544,57,0.562700965,733,498,70,0.595450853,737,504,60,0.593875907,559,663,79,0.457446809,737,501,63,0.595315024,668,559,74,0.544417278
36,BERWICK,7872,-70.8635506,43.2683199,1118,1360,106,0.451170299,1474,935,175,0.611872146,1577,821,186,0.657631359,1401,995,188,0.584724541,1124,1245,215,0.474461798,1662,754,168,0.687913907,1439,959,186,0.600083403
37,BETHEL,2738,-70.7898806,44.4044586,566,809,13,0.411636364,869,477,42,0.645616642,856,483,49,0.639283047,859,480,49,0.641523525,683,644,61,0.5146948,893,448,47,0.665920955,777,551,60,0.585090361
38,BIDDEFORD,21504,-70.4533844,43.4925843,4020,3646,127,0.524393426,4324,3159,310,0.577843111,4517,2964,312,0.603796284,4643,2847,303,0.619893191,3717,3727,349,0.499328318,5042,2478,273,0.670478723,4240,3221,332,0.568288433
39,BINGHAM,900,-69.8823059,45.0586793,170,290,6,0.369565217,275,171,20,0.616591928,294,147,25,0.666666667,282,158,26,0.640909091,213,221,32,0.49078341,285,156,25,0.646258503,234,203,29,0.535469108
40,BLAINE,671,-67.8686274,46.5047594,109,216,4,0.335384615,153,155,21,0.496753247,170,129,30,0.568561873,171,132,26,0.564356436,111,187,31,0.372483221,181,124,24,0.593442623,135,161,33,0.456081081
41,BOOTHBAY,3173,-69.6337364,43.8762865,946,830,17,0.532657658,1046,668,79,0.610268378,1054,658,81,0.615654206,1049,663,81,0.612733645,873,828,92,0.513227513,1115,602,76,0.649388468,1144,572,77,0.666666667
42,BOWDOIN,3211,-69.9696243,44.0495825,513,972,9,0.345454545,738,722,34,0.505479452,780,673,41,0.536820372,769,689,36,0.527434842,563,883,48,0.389349931,818,640,36,0.561042524,739,700,55,0.513551077
43,BOWDOINHAM,3056,-69.8968927,44.0091821,687,885,30,0.437022901,965,574,63,0.627030539,962,575,65,0.6258946,949,588,65,0.617436565,762,771,69,0.497064579,989,548,65,0.643461288,890,628,84,0.58629776
44,BOWERBANK,112,-69.2547818,45.3156873,19,52,3,0.267605634,27,41,6,0.397058824,38,30,6,0.558823529,42,27,5,0.608695652,25,43,6,0.367647059,34,34,6,0.5,31,37,6,0.455882353
45,BRADFORD,1228,-68.9366104,45.0671376,123,419,6,0.226937269,274,247,27,0.525911708,275,244,29,0.529865125,288,234,26,0.551724138,221,295,32,0.428294574,253,261,34,0.492217899,262,251,35,0.510721248
46,BRADLEY,1488,-68.6276101,44.9167519,219,420,35,0.342723005,371,246,57,0.601296596,395,216,63,0.646481178,400,211,63,0.654664484,324,289,61,0.528548124,399,220,55,0.644588045,360,255,59,0.585365854
47,BREMEN,807,-69.4026747,43.992866,228,208,12,0.52293578,248,181,19,0.578088578,261,164,23,0.614117647,237,188,23,0.557647059,207,214,27,0.491686461,255,173,20,0.595794393,271,155,22,0.636150235
48,BREWER,9035,-68.7614246,44.7967378,1710,2402,84,0.415856031,2217,1776,203,0.555221638,2349,1635,212,0.589608434,2607,1380,209,0.653875094,2040,1929,227,0.513983371,2381,1616,199,0.595696773,2156,1821,219,0.542117174
49,BRIDGEWATER,562,-67.8433564,46.427822,111,142,6,0.438735178,128,116,15,0.524590164,143,102,14,0.583673469,131,111,17,0.541322314,102,139,18,0.423236515,141,102,16,0.580246914,117,127,15,0.479508197
50,BRIDGTON,5434,-70.7128684,44.0548021,1175,1176,40,0.499787325,1354,924,113,0.594381036,1386,878,127,0.612190813,1343,934,114,0.589811155,1088,1166,137,0.482697427,1448,834,109,0.634531113,1244,1009,138,0.552152685
51,BRIGHTON,67,-69.6947755,45.0453339,14,23,1,0.378378378,20,15,3,0.571428571,23,13,2,0.638888889,22,14,2,0.611111111,15,21,2,0.416666667,20,16,2,0.555555556,18,18,2,0.5
52,BRISTOL,2787,-69.4954131,43.9248053,786,757,46,0.509397278,995,503,91,0.664218959,964,513,112,0.65267434,926,555,108,0.625253207,791,673,125,0.540300546,964,527,98,0.646545942,1048,444,97,0.702412869
53,BROOKLIN,812,-68.5691898,44.2661906,298,198,13,0.600806452,315,167,27,0.653526971,313,173,23,0.644032922,303,181,25,0.626033058,268,212,29,0.558333333,318,168,23,0.654320988,318,168,23,0.654320988
54,BROOKS,1133,-69.120873,44.5503501,154,314,3,0.329059829,250,212,9,0.541125541,238,223,10,0.51626898,206,250,15,0.451754386,167,286,18,0.368653422,228,228,15,0.5,216,240,15,0.473684211
55,BROOKSVILLE,913,-68.6847872,44.3469906,316,238,14,0.570397112,339,206,23,0.622018349,339,202,27,0.626617375,336,206,26,0.619926199,273,259,36,0.513157895,355,189,24,0.652573529,341,195,32,0.63619403
56,BROWNFIELD,1643,-70.9086768,43.9381275,350,328,13,0.516224189,382,275,34,0.581430746,358,288,45,0.554179567,357,293,41,0.549230769,263,384,44,0.406491499,378,272,41,0.581538462,339,312,40,0.520737327
57,BROWNVILLE,1187,-69.03339,45.3070685,160,363,16,0.305927342,267,237,35,0.529761905,318,186,35,0.630952381,302,208,29,0.592156863,248,253,38,0.49500998,286,220,33,0.565217391,274,231,34,0.542574257
58,BRUNSWICK,20535,-69.966996,43.9140162,5985,3914,270,0.604606526,6562,3034,573,0.683826594,6550,3007,612,0.685361515,6540,3015,614,0.684458399,5634,3842,693,0.594554664,7133,2527,509,0.738405797,6463,3050,656,0.679386103
59,BUCKFIELD,2041,-70.3653359,44.2895134,276,631,13,0.30429989,410,467,43,0.467502851,418,449,53,0.482122261,458,406,56,0.530092593,319,544,57,0.369640788,448,427,45,0.512,393,475,52,0.452764977
60,BUCKSPORT,4925,-68.7701224,44.6289696,738,1287,43,0.364444444,1085,889,94,0.54964539,1211,763,94,0.613475177,1217,751,100,0.618394309,982,978,108,0.501020408,1135,832,101,0.577020844,1148,816,104,0.584521385
61,BURLINGTON,457,-68.4266875,45.2092264,31,119,1,0.206666667,65,78,8,0.454545455,74,67,10,0.524822695,67,75,9,0.471830986,52,88,11,0.371428571,60,83,8,0.41958042,58,83,10,0.411347518
62,BURNHAM,1231,-69.4292308,44.6927723,162,358,12,0.311538462,289,211,32,0.578,294,206,32,0.588,285,216,31,0.568862275,214,282,36,0.431451613,287,215,30,0.571713147,272,230,30,0.541832669
63,BUXTON,8327,-70.5189422,43.6378583,1686,2283,26,0.424792139,2141,1718,136,0.554806945,2141,1699,155,0.557552083,2287,1557,151,0.594953174,1742,2064,189,0.457698371,2259,1599,137,0.585536547,2058,1782,155,0.5359375
64,BYRON,149,-70.6306241,44.7220034,21,63,0,0.25,50,30,4,0.625,38,42,4,0.475,46,35,3,0.567901235,28,52,4,0.35,44,36,4,0.55,34,47,3,0.419753086
65,CALAIS,3005,-67.2786038,45.1889633,457,732,32,0.384356602,664,493,64,0.573898012,775,389,57,0.66580756,762,404,55,0.653516295,589,564,68,0.510841284,763,404,54,0.653813196,740,421,60,0.637381568
66,CAMBRIDGE,452,-69.4739368,45.0242231,49,172,0,0.221719457,108,107,6,0.502325581,114,99,8,0.535211268,112,101,8,0.525821596,67,139,15,0.325242718,98,112,11,0.466666667,82,125,14,0.396135266
67,CAMDEN,4783,-69.0647838,44.2097928,1899,910,60,0.676041296,2008,702,159,0.74095941,1940,768,161,0.716395864,1932,764,173,0.716617211,1780,883,206,0.668419076,2096,630,143,0.76889215,1935,752,182,0.720133978
68,CANAAN,2170,-69.5614376,44.7617295,313,611,13,0.338744589,488,413,36,0.541620422,523,375,39,0.582405345,498,401,38,0.553948832,376,519,42,0.420111732,517,383,37,0.574444444,460,438,39,0.512249443
69,CANTON,1098,-69.4454689,45.253783,127,314,8,0.287981859,234,199,16,0.540415704,225,203,21,0.525700935,228,204,17,0.527777778,171,256,22,0.400468384,260,173,16,0.600461894,204,224,21,0.476635514
70,CARATUNK,65,-69.9903474,45.2335733,12,31,3,0.279069767,17,24,5,0.414634146,19,20,7,0.487179487,24,17,5,0.585365854,15,25,6,0.375,17,23,6,0.425,18,22,6,0.45
71,CARMEL,2845,-69.0511537,44.7975688,387,875,11,0.306656101,568,663,42,0.461413485,636,594,43,0.517073171,675,561,37,0.546116505,466,755,52,0.381654382,609,621,43,0.495121951,564,663,46,0.459657702
72,CARROLL,146,-68.0366118,45.4144799,29,39,5,0.426470588,30,37,6,0.447761194,29,38,6,0.432835821,27,40,6,0.402985075,20,48,5,0.294117647,25,43,5,0.367647059,26,42,5,0.382352941
73,CARTHAGE,542,-70.4734195,44.6240737,61,170,1,0.264069264,126,97,9,0.565022422,128,97,7,0.568888889,125,97,10,0.563063063,83,138,11,0.375565611,139,86,7,0.617777778,113,105,14,0.518348624
74,CARY,201,-67.8619616,45.995333,31,66,0,0.319587629,44,50,3,0.468085106,46,47,4,0.494623656,45,49,3,0.478723404,32,62,3,0.340425532,45,50,2,0.473684211,37,57,3,0.393617021
75,CASCO,3928,-70.5211945,43.969246,773,909,24,0.459571938,933,698,75,0.572041692,959,670,77,0.588704727,1003,630,73,0.614206981,778,843,85,0.479950648,1019,626,61,0.619452888,924,705,77,0.567219153
76,CASTINE,992,-68.7989582,44.3888609,253,185,15,0.577625571,306,116,31,0.725118483,307,110,36,0.736211031,309,112,32,0.733966746,291,127,35,0.696172249,300,124,29,0.70754717,332,90,31,0.786729858
77,CASWELL,282,-67.8644525,46.9811169,53,72,2,0.424,84,37,6,0.694214876,83,40,4,0.674796748,82,40,5,0.672131148,63,58,6,0.520661157,81,40,6,0.669421488,67,53,7,0.558333333
78,CHAPMAN,445,-68.1608669,46.6480974,58,154,0,0.273584906,130,78,4,0.625,129,77,6,0.626213592,147,60,5,0.710144928,110,96,6,0.533980583,145,60,7,0.707317073,115,91,6,0.558252427
79,CHARLESTON,1717,-69.0405949,45.0850615,133,424,10,0.238779174,234,308,25,0.431734317,274,271,22,0.502752294,239,300,28,0.443413729,163,377,27,0.301851852,227,315,25,0.418819188,231,311,25,0.426199262
80,CHARLOTTE,317,-67.2452664,45.0211881,55,97,4,0.361842105,70,75,11,0.482758621,71,77,8,0.47972973,66,82,8,0.445945946,61,87,8,0.412162162,59,89,8,0.398648649,80,71,5,0.529801325
81,CHELSEA,2750,-69.7172658,44.2503474,450,757,20,0.372825186,681,500,46,0.576629975,668,509,50,0.567544605,744,438,45,0.629441624,557,618,52,0.474042553,715,465,47,0.605932203,685,494,48,0.581000848
82,CHERRYFIELD,1161,-67.9258366,44.6072991,198,347,20,0.363302752,268,252,45,0.515384615,279,239,47,0.538610039,304,216,45,0.584615385,226,288,51,0.439688716,273,248,44,0.523992322,263,256,46,0.506743738
83,CHESTER,525,-68.4997474,45.4086674,66,182,5,0.266129032,120,118,15,0.504201681,130,106,17,0.550847458,119,115,19,0.508547009,90,142,21,0.387931034,107,128,18,0.455319149,107,126,20,0.459227468
84,CHESTERVILLE,1350,-70.0861692,44.5511745,182,432,7,0.296416938,350,242,29,0.591216216,357,238,26,0.6,339,255,27,0.570707071,269,320,32,0.456706282,353,239,29,0.596283784,336,266,19,0.558139535
85,CHINA,4302,-69.5172641,44.4786791,778,1281,26,0.377853327,1113,898,74,0.553455992,1150,857,78,0.572994519,1220,791,74,0.606663352,943,1046,96,0.474107592,1151,869,65,0.56980198,1089,915,81,0.543413174
86,CLIFTON,905,-68.511138,44.8167372,133,243,30,0.353723404,199,171,36,0.537837838,188,178,40,0.513661202,221,143,42,0.607142857,178,186,42,0.489010989,209,158,39,0.569482289,189,175,42,0.519230769
87,CLINTON,3354,-69.5031267,44.637828,469,965,11,0.327057183,880,517,48,0.62992126,877,522,46,0.62687634,859,542,44,0.613133476,658,731,56,0.473722102,890,504,51,0.638450502,815,579,51,0.584648494
88,COLUMBIA,464,-67.8039998,44.669418,40,136,0,0.227272727,70,98,8,0.416666667,87,82,7,0.514792899,81,85,10,0.487951807,60,105,11,0.363636364,75,92,9,0.449101796,73,93,10,0.439759036
89,COOPER,145,-67.4397144,44.959521,27,73,1,0.27,54,44,3,0.551020408,55,42,4,0.567010309,58,39,4,0.597938144,46,50,5,0.479166667,55,42,4,0.567010309,60,37,4,0.618556701
90,COPLIN,159,-70.4697339,45.0987282,31,54,0,0.364705882,36,45,4,0.444444444,44,38,3,0.536585366,45,38,2,0.542168675,39,44,2,0.469879518,46,37,2,0.554216867,50,34,1,0.595238095
91,CORINNA,2141,-69.2617131,44.921174,258,688,6,0.272727273,520,405,27,0.562162162,541,378,33,0.588683351,558,361,33,0.607181719,410,501,41,0.450054885,522,396,34,0.568627451,471,442,39,0.515881709
92,CORINTH,2804,-68.9991802,44.9861321,310,894,28,0.257475083,590,579,63,0.504704876,641,523,68,0.550687285,637,533,62,0.544444444,458,695,79,0.397224631,583,579,70,0.50172117,536,631,65,0.459297344
93,CORNISH,1421,-70.8011731,43.8047977,284,399,9,0.415812592,390,271,31,0.590015129,396,272,24,0.592814371,378,284,30,0.570996979,298,355,39,0.456355283,400,268,24,0.598802395,351,311,30,0.53021148
94,CORNVILLE,1380,-69.6731067,44.8367272,199,440,6,0.3114241,360,259,26,0.581583199,340,274,31,0.553745928,333,281,31,0.542345277,249,362,34,0.407528642,343,265,37,0.564144737,294,317,34,0.481178396
95,CRAWFORD,96,-67.5513796,45.0528624,14,47,1,0.229508197,27,29,6,0.482142857,29,28,5,0.50877193,31,23,8,0.574074074,24,32,6,0.428571429,26,30,6,0.464285714,32,25,5,0.561403509
96,CRYSTAL,248,-68.3603059,45.9592186,30,96,2,0.238095238,73,51,4,0.588709677,75,47,6,0.614754098,67,55,6,0.549180328,54,68,6,0.442622951,73,50,5,0.593495935,52,69,7,0.429752066
97,CUMBERLAND,8208,-70.2585205,43.796573,2454,2062,77,0.54340124,2639,1748,206,0.601550034,2740,1631,222,0.626858842,2905,1487,201,0.661429872,2485,1867,241,0.571001838,2849,1544,200,0.648531755,2749,1618,226,0.629493932
98,CUSHING,1495,-69.2614502,44.0137798,314,357,4,0.467958271,365,283,27,0.563271605,381,262,32,0.592534992,377,270,28,0.582689335,297,341,37,0.465517241,392,253,30,0.607751938,389,253,33,0.605919003
99,CUTLER,511,-67.2038737,44.6575794,82,167,12,0.329317269,114,117,30,0.493506494,116,111,34,0.511013216,105,120,36,0.466666667,84,138,39,0.378378378,96,127,38,0.430493274,118,106,37,0.526785714
100,CYR,94,-67.9992115,47.0968485,23,24,0,0.489361702,30,17,0,0.638297872,33,13,1,0.717391304,29,15,3,0.659090909,18,26,3,0.409090909,31,14,2,0.688888889,20,25,2,0.444444444
101,DALLAS,296,-70.5559011,44.9969997,84,115,0,0.422110553,115,79,5,0.592783505,134,60,5,0.690721649,123,71,5,0.634020619,96,96,7,0.5,127,65,7,0.661458333,122,70,7,0.635416667
102,DAMARISCOTTA,2151,-69.5188885,44.0328765,632,483,47,0.566816143,747,335,80,0.69038817,725,351,86,0.673791822,717,358,87,0.666976744,596,462,104,0.563327032,772,311,79,0.712834718,749,324,89,0.69804287
103,DAYTON,2082,-70.5704598,43.5358694,391,623,12,0.385601578,514,484,28,0.51503006,503,491,32,0.506036217,559,428,39,0.566362715,407,576,43,0.414038657,520,475,31,0.522613065,480,514,32,0.482897384
104,DEBLOIS,54,-68.0147304,44.7414636,9,18,0,0.333333333,11,16,0,0.407407407,13,14,0,0.481481481,15,11,1,0.576923077,9,17,1,0.346153846,12,15,0,0.444444444,14,12,1,0.538461538
105,DEDHAM,1670,-68.6582536,44.6931707,338,537,18,0.386285714,496,358,39,0.580796253,523,324,46,0.617473436,537,316,40,0.62954279,448,397,48,0.530177515,489,363,41,0.573943662,502,346,45,0.591981132
106,DENMARK,1151,-70.8033966,43.9703491,255,338,7,0.430016863,358,212,30,0.628070175,335,235,30,0.587719298,338,232,30,0.592982456,260,297,43,0.466786355,360,210,30,0.631578947,315,252,33,0.555555556
107,DENNISTOWN,31,-70.2831241,45.6769905,8,15,1,0.347826087,13,10,1,0.565217391,12,10,2,0.545454545,6,16,2,0.272727273,8,15,1,0.347826087,10,13,1,0.434782609,14,9,1,0.608695652
108,DETROIT,827,-69.2960151,44.7927823,88,224,5,0.282051282,144,156,17,0.48,157,140,20,0.528619529,161,136,20,0.542087542,120,175,22,0.406779661,163,137,17,0.543333333,139,156,22,0.471186441
109,DEXTER,3706,-69.2898156,45.023918,499,951,27,0.344137931,786,619,72,0.559430605,887,523,67,0.629078014,871,535,71,0.619487909,670,724,83,0.480631277,867,541,69,0.615767045,763,640,74,0.54383464
110,DIXFIELD,2486,-70.4563366,44.5313932,352,758,51,0.317117117,629,455,77,0.580258303,626,460,75,0.576427256,623,458,80,0.576318224,446,636,79,0.41219963,658,425,78,0.60757156,547,543,71,0.501834862
111,DIXMONT,1126,-69.1628221,44.6803471,173,420,17,0.291736931,296,285,29,0.509466437,289,284,37,0.504363002,311,261,38,0.543706294,253,317,40,0.443859649,293,281,36,0.510452962,256,314,40,0.449122807
112,DOVER-FOXCROFT,4037,-69.2270821,45.1833421,660,1229,40,0.349391212,1012,812,105,0.554824561,1154,675,100,0.630945872,1092,729,108,0.599670511,878,933,118,0.484815019,1071,760,98,0.58492627,962,855,112,0.529444139
113,DRESDEN,1678,-69.7242215,44.1070945,427,492,14,0.464635473,523,377,33,0.581111111,500,392,41,0.560538117,500,394,39,0.559284116,414,476,43,0.465168539,542,362,29,0.599557522,511,384,38,0.570949721
114,DREW,37,-68.0942848,45.6013167,4,17,0,0.19047619,14,5,2,0.736842105,14,6,1,0.7,13,5,3,0.722222222,8,11,2,0.421052632,11,8,2,0.578947368,12,8,1,0.6
115,DURHAM,3993,-70.1229905,43.972476,810,1308,20,0.382436261,988,1075,75,0.478914203,985,1073,80,0.478620019,1046,1005,87,0.509995124,778,1273,87,0.379327157,1034,1031,73,0.500726392,949,1102,87,0.462701121
116,EASTBROOK,417,-68.2644618,44.6786857,51,134,15,0.275675676,86,95,19,0.475138122,97,86,17,0.530054645,110,70,20,0.611111111,82,97,21,0.458100559,90,92,18,0.494505495,90,91,19,0.497237569
117,EASTON,1181,-67.9098848,46.6410887,213,335,9,0.388686131,307,218,32,0.584761905,325,202,30,0.616698292,306,214,37,0.588461538,245,272,40,0.473887814,347,179,31,0.659695817,268,254,35,0.513409962
118,EASTPORT,1265,-66.9899785,44.9061906,402,333,24,0.546938776,463,246,50,0.65303244,480,220,59,0.685714286,465,243,51,0.656779661,383,316,60,0.547925608,535,177,47,0.751404494,487,219,53,0.6898017
119,EDDINGTON,2208,-68.6935362,44.8265844,380,720,18,0.345454545,525,547,46,0.489738806,530,539,49,0.495790458,608,459,51,0.569821931,449,612,57,0.423185674,555,512,51,0.520149953,520,548,50,0.486891386
120,EDGECOMB,1262,-69.630602,43.9584129,362,300,15,0.546827795,395,249,33,0.613354037,396,249,32,0.613953488,365,275,37,0.5703125,326,313,38,0.510172144,415,229,33,0.644409938,395,247,35,0.615264798
121,EDINBURG,125,-68.6903078,45.1764474,21,47,0,0.308823529,37,30,1,0.552238806,33,34,1,0.492537313,39,29,0,0.573529412,29,38,1,0.432835821,44,24,0,0.647058824,37,30,1,0.552238806
122,ELIOT,6908,-70.8000544,43.1531427,1729,1266,62,0.577295492,1798,1114,145,0.617445055,1864,1026,167,0.644982699,1733,1162,162,0.598618307,1451,1422,184,0.505046989,2048,876,133,0.700410397,1837,1056,164,0.634980989
123,ELLSWORTH,8180,-68.4194641,44.5434095,1534,1903,77,0.446319465,1869,1459,186,0.561598558,1901,1416,197,0.57310823,2161,1193,160,0.644305307,1791,1524,199,0.540271493,1979,1354,181,0.593759376,1803,1518,193,0.542908762
124,EMBDEN,950,-69.8667244,44.9181137,155,287,7,0.350678733,210,218,21,0.490654206,219,206,24,0.515294118,225,200,24,0.529411765,161,260,28,0.382422803,210,215,24,0.494117647,205,220,24,0.482352941
125,ENFIELD,1536,-68.5658766,45.248726,180,487,13,0.269865067,321,331,28,0.492331288,358,289,33,0.553323029,365,278,37,0.567651633,259,379,42,0.405956113,338,308,34,0.523219814,307,339,34,0.475232198
126,ETNA,1199,-69.111155,44.8209007,164,359,10,0.313575526,227,281,25,0.446850394,240,264,29,0.476190476,256,247,30,0.508946322,169,327,37,0.340725806,223,278,32,0.44510978,205,293,35,0.411646586
127,EUSTIS,618,-70.438713,45.1402374,105,222,13,0.321100917,164,134,42,0.55033557,184,113,43,0.61952862,167,135,38,0.552980132,126,166,48,0.431506849,180,124,36,0.592105263,157,139,44,0.530405405
128,EXETER,1096,-69.1225343,44.9621841,126,322,6,0.28125,277,160,17,0.633867277,246,189,19,0.565517241,262,172,20,0.603686636,201,229,24,0.46744186,252,183,19,0.579310345,237,198,19,0.544827586
129,FAIRFIELD,6552,-69.5986469,44.5884052,1041,1727,34,0.376083815,1585,1117,100,0.586602517,1648,1042,112,0.612639405,1645,1041,116,0.612434847,1274,1403,125,0.475905865,1684,1013,105,0.624397479,1483,1199,120,0.552945563
130,FALMOUTH,12312,-70.2601759,43.7435343,3876,2628,188,0.595940959,4062,2266,364,0.641908976,4192,2128,372,0.663291139,4348,1985,359,0.686562451,3792,2494,406,0.603245307,4381,1981,330,0.688619931,4167,2145,380,0.660171103
131,FARMINGDALE,2925,-69.7714428,44.2443842,634,782,30,0.447740113,854,520,72,0.62154294,854,527,65,0.618392469,938,437,71,0.682181818,736,636,74,0.536443149,925,456,65,0.66980449,820,543,83,0.601614087
132,FARMINGTON,7762,-70.1512169,44.6704998,1263,1871,47,0.402999362,1866,1145,170,0.619727665,1940,1062,179,0.646235843,1875,1140,166,0.621890547,1515,1465,201,0.508389262,2002,1014,165,0.663793103,1731,1255,195,0.579705291
133,FAYETTE,1163,-70.0336654,44.4089558,261,417,6,0.384955752,380,284,20,0.572289157,351,305,28,0.535060976,372,286,26,0.565349544,303,350,31,0.464012251,376,283,25,0.570561457,351,307,26,0.53343465
134,FRANKFORT,1189,-68.8744635,44.6086733,162,405,22,0.285714286,278,259,52,0.517690875,293,244,52,0.545623836,277,262,50,0.513914657,220,314,55,0.411985019,253,280,56,0.47467167,259,274,56,0.485928705
135,FRANKLIN,1559,-68.2316054,44.5874877,260,333,20,0.438448567,303,269,41,0.52972028,315,260,38,0.547826087,326,245,42,0.570928196,272,295,46,0.479717813,323,250,40,0.563699825,308,264,41,0.538461538
136,FREEDOM,724,-69.2967536,44.5298272,156,220,12,0.414893617,227,146,15,0.608579088,217,150,21,0.591280654,225,148,15,0.603217158,181,188,19,0.490514905,229,141,18,0.618918919,206,164,18,0.556756757
137,FREEPORT,8558,-70.1031201,43.8570065,2718,1894,100,0.589332177,2932,1570,210,0.651266104,2876,1590,246,0.643976713,2926,1547,239,0.654147105,2459,1968,285,0.555455162,3154,1350,208,0.70026643,2901,1561,250,0.65015688
138,FRENCHBORO,59,-68.3625166,44.1181384,8,14,0,0.363636364,16,4,2,0.8,15,6,1,0.714285714,15,5,2,0.75,10,10,2,0.5,14,6,2,0.7,18,3,1,0.857142857
139,FRENCHVILLE,1037,-68.3797648,47.2808734,198,302,9,0.396,316,167,26,0.654244306,342,141,26,0.708074534,316,164,29,0.658333333,244,235,30,0.509394572,332,155,22,0.681724846,284,200,25,0.58677686
140,FRIENDSHIP,1134,-69.3341229,43.9838019,271,353,7,0.434294872,325,271,35,0.545302013,346,249,36,0.581512605,341,251,39,0.576013514,264,323,44,0.449744463,373,225,33,0.623745819,422,175,34,0.706867672
141,FRYEBURG,3451,-70.9806357,44.0164329,696,648,13,0.517857143,781,513,63,0.603554869,815,468,74,0.63522993,735,557,65,0.568885449,570,707,80,0.446358653,843,451,63,0.651468315,714,569,74,0.556508184
142,GARDINER,5653,-69.7753222,44.2300698,1230,1416,78,0.464852608,1547,1040,137,0.59798995,1537,1035,152,0.597589425,1637,940,147,0.635234769,1320,1244,160,0.514820593,1675,916,133,0.646468545,1504,1077,143,0.582719876
143,GARFIELD,74,-68.4973291,46.6014312,20,27,3,0.425531915,20,24,6,0.454545455,22,22,6,0.5,26,19,5,0.577777778,14,31,5,0.311111111,20,25,5,0.444444444,11,34,5,0.244444444
144,GARLAND,1052,-69.1603206,45.0383951,136,333,2,0.289978678,219,246,6,0.470967742,242,209,20,0.536585366,241,213,17,0.530837004,191,262,18,0.421633554,240,217,14,0.525164114,212,243,16,0.465934066
145,GEORGETOWN,1069,-69.752359,43.8021196,327,326,9,0.500765697,408,227,27,0.642519685,397,235,30,0.628164557,384,246,32,0.60952381,338,288,36,0.539936102,420,213,29,0.663507109,420,211,31,0.665610143
146,GILEAD,204,-70.9727112,44.3940915,36,53,2,0.404494382,54,33,4,0.620689655,51,35,5,0.593023256,51,37,3,0.579545455,42,44,5,0.488372093,60,27,4,0.689655172,51,35,5,0.593023256
147,GLENBURN,4563,-68.8457461,44.9168621,694,1342,22,0.34086444,1033,959,66,0.518574297,1144,846,68,0.574874372,1205,787,66,0.604919679,944,1041,73,0.475566751,1107,883,68,0.556281407,1060,926,72,0.533736153
149,GORHAM,17978,-70.4442252,43.6795314,3611,3881,133,0.481980779,4444,2829,352,0.611027086,4433,2818,374,0.61136395,4753,2506,366,0.654773385,3835,3381,409,0.531457871,4789,2496,340,0.657378174,4361,2887,377,0.601683223
150,GOULDSBORO,1741,-68.039543,44.47852,418,422,20,0.497619048,461,350,49,0.568434032,473,336,51,0.584672435,502,313,45,0.61595092,413,393,54,0.512406948,453,359,48,0.557881773,477,333,50,0.588888889
151,GRAY,8223,-70.3317195,43.885632,1550,2332,136,0.399278722,2058,1757,203,0.539449541,2181,1619,218,0.573947368,2257,1552,209,0.592543975,1793,1993,232,0.473586899,2324,1502,192,0.607422896,2096,1695,227,0.55288842
152,GREENBUSH,1513,-68.6508635,45.0803409,177,372,8,0.322404372,261,273,23,0.488764045,277,255,25,0.520676692,266,262,29,0.503787879,202,327,28,0.381852552,242,286,29,0.458333333,239,286,32,0.455238095
153,GREENE,4339,-70.1403313,44.189794,831,1322,22,0.385973061,1153,940,82,0.550883899,1097,984,94,0.527150408,1180,902,93,0.566762728,854,1213,108,0.413159168,1169,917,89,0.560402685,1036,1048,91,0.497120921
154,GREENVILLE,1604,-69.5905814,45.4594863,351,683,14,0.339458414,532,471,45,0.530408774,574,419,55,0.578046324,569,435,44,0.566733068,440,558,50,0.440881764,551,452,45,0.549351944,490,505,53,0.492462312
155,GREENWOOD,807,-70.6508978,44.3184011,155,230,6,0.402597403,221,152,18,0.592493298,230,146,15,0.611702128,214,157,20,0.576819407,166,206,19,0.446236559,228,145,18,0.611260054,202,171,18,0.54155496
156,GUILFORD,1448,-69.3844783,45.1689375,203,429,14,0.321202532,290,319,37,0.476190476,348,266,32,0.566775244,349,264,33,0.569331158,257,345,44,0.426910299,342,273,31,0.556097561,294,308,44,0.488372093
157,HALLOWELL,2381,-69.7908786,44.2859022,821,582,38,0.585174626,1020,347,74,0.746159473,995,366,80,0.731080088,996,371,74,0.72860278,899,452,90,0.665433013,1076,296,69,0.78425656,971,390,80,0.713445996
158,HAMLIN,203,-67.7939057,47.065878,40,43,1,0.481927711,40,38,6,0.512820513,45,33,6,0.576923077,50,30,4,0.625,36,44,4,0.45,42,37,5,0.53164557,38,42,4,0.475
159,HAMMOND,110,-67.9177143,46.1949948,6,35,2,0.146341463,20,21,2,0.487804878,18,23,2,0.43902439,25,16,2,0.609756098,20,21,2,0.487804878,24,17,2,0.585365854,15,26,2,0.365853659
160,HAMPDEN,7412,-68.8370436,44.7445421,1305,1985,90,0.396656535,1830,1359,191,0.573847601,1882,1279,219,0.595381208,2037,1149,194,0.639359699,1658,1492,230,0.526349206,1893,1287,200,0.595283019,1785,1372,223,0.5654102
161,HANCOCK,2431,-68.2537463,44.5291357,489,589,11,0.453617811,575,483,31,0.543478261,620,427,42,0.592168099,652,401,36,0.619183286,563,487,39,0.536190476,614,447,28,0.57869934,609,443,37,0.578897338
162,HANOVER,262,-70.6942351,44.4967315,66,94,1,0.4125,90,65,6,0.580645161,90,62,9,0.592105263,93,62,6,0.6,70,82,9,0.460526316,88,64,9,0.578947368,85,66,10,0.562913907
163,HARMONY,898,-69.5461603,44.9739462,131,278,14,0.320293399,193,192,38,0.501298701,199,182,42,0.522309711,222,164,37,0.575129534,160,221,42,0.419947507,191,192,40,0.498694517,170,208,45,0.44973545
164,HARPSWELL,4918,-69.9598343,43.7864342,1602,1422,45,0.529761905,1979,968,122,0.67153037,1969,948,152,0.67500857,1916,1023,130,0.651922423,1665,1242,162,0.572755418,2010,933,126,0.682976555,2139,808,122,0.725822871
165,HARRINGTON,964,-67.8109953,44.6193327,131,278,6,0.320293399,199,192,24,0.508951407,225,168,22,0.572519084,211,177,27,0.543814433,166,220,29,0.430051813,198,199,18,0.498740554,212,182,21,0.538071066
166,HARRISON,2800,-70.6792289,44.1103479,563,689,14,0.449680511,694,520,52,0.571663921,685,524,57,0.566583954,689,524,53,0.56801319,543,662,61,0.450622407,740,485,41,0.604081633,647,562,57,0.535153019
167,HARTFORD,1214,-70.346726,44.372845,219,345,6,0.388297872,300,242,28,0.553505535,307,239,24,0.562271062,301,239,30,0.557407407,224,314,32,0.416356877,324,218,28,0.597785978,275,266,29,0.50831793
168,HARTLAND,1724,-69.512853,44.8965211,221,529,18,0.294666667,348,386,34,0.474114441,404,323,41,0.555708391,389,339,40,0.534340659,283,440,45,0.39142462,398,335,35,0.542974079,353,374,41,0.485557084
169,HAYNESVILLE,112,-67.9911283,45.8261688,12,37,1,0.244897959,21,27,2,0.4375,24,23,3,0.510638298,27,20,3,0.574468085,17,29,4,0.369565217,23,24,3,0.489361702,19,29,2,0.395833333
170,HEBRON,1419,-70.4064465,44.1981261,213,440,4,0.32618683,368,253,36,0.592592593,339,282,36,0.54589372,373,250,34,0.598715891,270,344,43,0.439739414,358,266,33,0.573717949,328,291,38,0.529886914
171,HERMON,6033,-68.9133724,44.81007,880,1802,31,0.328113348,1365,1259,89,0.520198171,1479,1138,96,0.565150936,1588,1036,89,0.605182927,1215,1397,101,0.465160796,1373,1238,102,0.525852164,1308,1305,100,0.500574053
172,HERSEY,75,-68.4341636,46.0733805,10,20,1,0.333333333,13,17,1,0.433333333,17,13,1,0.566666667,19,11,1,0.633333333,15,15,1,0.5,16,14,1,0.533333333,13,17,1,0.433333333
173,HIGHLAND,70,-70.0617497,45.0751866,36,80,1,0.310344828,57,56,4,0.504424779,67,45,5,0.598214286,52,56,9,0.481481481,44,66,7,0.4,59,53,5,0.526785714,48,63,6,0.432432432
174,HIRAM,1642,-70.8322512,43.8350627,256,413,29,0.382660688,364,272,62,0.572327044,380,248,70,0.605095541,365,265,68,0.579365079,285,344,69,0.453100159,362,271,65,0.571879937,348,279,71,0.555023923
175,HODGDON,1267,-67.8497604,46.0612772,154,380,12,0.288389513,251,263,32,0.488326848,278,234,34,0.54296875,258,252,36,0.505882353,170,343,33,0.331384016,259,254,33,0.504873294,210,297,39,0.414201183
176,HOLDEN,3104,-68.6789218,44.7528499,607,1076,29,0.360665478,833,822,57,0.503323263,878,776,58,0.530834341,944,707,61,0.571774682,744,905,63,0.451182535,866,789,57,0.52326284,816,836,60,0.493946731
177,HOLLIS,4747,-70.6208974,43.6346754,841,1305,16,0.391891892,1214,874,74,0.581417625,1201,872,89,0.579353594,1310,772,80,0.62920269,943,1122,97,0.456658596,1290,792,80,0.619596542,1193,882,87,0.574939759
178,HOPE,1687,-69.1589421,44.2650248,370,447,17,0.452876377,525,272,37,0.658720201,471,312,51,0.601532567,461,325,48,0.586513995,385,394,55,0.494223363,496,296,42,0.626262626,457,326,51,0.583652618
179,HOULTON,5752,-67.8402316,46.1261806,748,1316,32,0.362403101,1125,864,107,0.56561086,1250,745,101,0.626566416,1226,767,103,0.615153036,906,1071,119,0.458270106,1257,732,107,0.631975867,1014,964,118,0.512639029
180,HOWLAND,1203,-68.6588563,45.2431227,184,371,10,0.331531532,276,249,40,0.525714286,303,220,42,0.579349904,310,220,35,0.58490566,233,290,42,0.445506692,304,225,36,0.574669187,272,255,38,0.516129032
181,HUDSON,1513,-68.8805923,45.0011783,149,441,12,0.252542373,251,317,34,0.441901408,304,256,42,0.542857143,293,271,38,0.519503546,224,338,40,0.398576512,275,290,37,0.486725664,255,311,36,0.450530035
182,INDUSTRY,931,-70.0599702,44.7473347,144,263,8,0.353808354,223,176,16,0.558897243,226,168,21,0.573604061,227,167,21,0.576142132,188,203,24,0.480818414,225,171,19,0.568181818,207,184,24,0.529411765
183,ISLESBORO,561,-68.9085778,44.2938855,198,142,8,0.582352941,229,98,21,0.70030581,214,109,25,0.6625387,212,113,23,0.652307692,180,139,29,0.564263323,229,98,21,0.70030581,224,103,21,0.685015291
184,JACKMAN,815,-70.2521511,45.6240392,96,373,13,0.204690832,221,219,42,0.502272727,227,209,46,0.520642202,233,208,41,0.528344671,158,275,49,0.364896074,229,208,45,0.52402746,196,234,52,0.455813953
185,JACKSON,585,-69.1208748,44.6147933,87,166,6,0.343873518,147,100,12,0.5951417,153,88,18,0.634854772,147,101,11,0.592741935,131,114,14,0.534693878,147,96,16,0.604938272,139,102,18,0.576763485
186,JAY,4623,-70.2161924,44.5039265,716,1518,25,0.320501343,1252,947,60,0.569349704,1288,899,72,0.588934614,1332,861,66,0.607387141,1011,1173,75,0.462912088,1338,857,64,0.609567198,1190,995,74,0.544622426
187,JEFFERSON,2455,-69.4525442,44.2067419,483,839,18,0.365355522,718,567,55,0.558754864,710,559,71,0.559495666,716,551,73,0.565114444,575,680,85,0.458167331,709,563,68,0.557389937,687,584,69,0.540519276
188,JONESBORO,587,-67.5724938,44.6625773,103,176,3,0.369175627,155,118,9,0.567765568,155,115,12,0.574074074,164,109,9,0.600732601,130,141,11,0.479704797,153,122,7,0.556363636,164,110,8,0.598540146
189,JONESPORT,1317,-67.6030098,44.5310454,229,303,9,0.430451128,250,262,29,0.48828125,304,209,28,0.592592593,314,196,31,0.615686275,237,267,37,0.470238095,280,231,30,0.547945205,332,181,28,0.647173489
190,KENDUSKEAG,1365,-68.9317049,44.9195128,131,397,3,0.248106061,253,241,37,0.512145749,281,221,29,0.559760956,287,219,25,0.567193676,233,269,29,0.464143426,264,238,29,0.525896414,260,241,30,0.518962076
191,KENNEBUNK,11625,-70.54399,43.3845306,3420,2411,193,0.586520322,3843,1805,376,0.680417847,3814,1809,401,0.678285613,3883,1730,411,0.691786923,3479,2093,452,0.624371859,4035,1589,400,0.717460882,3804,1787,433,0.680379181
192,KENNEBUNKPORT,3651,-70.4767274,43.3617327,1271,767,45,0.623650638,1368,608,107,0.692307692,1373,599,111,0.696247465,1374,599,110,0.696401419,1201,759,123,0.612755102,1453,545,85,0.727227227,1416,560,107,0.71659919
193,KINGFIELD,974,-70.1539542,44.9592231,234,476,11,0.329577465,410,273,38,0.600292826,425,251,45,0.628698225,411,262,48,0.610698366,329,343,49,0.489583333,427,250,44,0.630723781,373,301,47,0.553412463
194,KINGMAN,171,-68.1994627,45.5495057,22,40,0,0.35483871,25,33,4,0.431034483,31,27,4,0.534482759,35,23,4,0.603448276,23,32,7,0.418181818,29,29,4,0.5,24,35,3,0.406779661
195,KITTERY,9819,-70.736137,43.0881256,2596,1324,70,0.662244898,2618,1173,199,0.69058296,2655,1108,227,0.705554079,2517,1243,230,0.669414894,2184,1550,256,0.584895554,2908,915,167,0.760659168,2631,1136,223,0.698433767
196,KNOX,789,-69.2133749,44.517294,101,252,0,0.28611898,161,185,7,0.465317919,152,190,11,0.444444444,160,184,9,0.465116279,131,212,10,0.381924198,153,190,10,0.44606414,137,204,12,0.401759531
197,LAGRANGE,679,-68.8447783,45.1668297,87,210,0,0.292929293,151,134,12,0.529824561,155,133,9,0.538194444,162,126,9,0.5625,123,166,8,0.425605536,169,120,8,0.584775087,149,141,7,0.513793103
198,LAKEVILLE,101,-68.0647964,45.3168704,13,49,1,0.209677419,34,24,5,0.586206897,33,25,5,0.568965517,34,24,5,0.586206897,25,33,5,0.431034483,31,26,6,0.543859649,30,28,5,0.517241379
199,LAMOINE,1703,-68.3191852,44.4911002,451,481,6,0.483905579,537,380,21,0.585605234,553,359,26,0.606359649,581,333,24,0.635667396,496,416,26,0.543859649,557,357,24,0.60940919,537,380,21,0.585605234
200,LEBANON,6391,-70.919379,43.4006697,851,1277,38,0.399906015,1195,861,110,0.581225681,1195,863,108,0.580660836,1146,911,109,0.557122022,853,1192,121,0.417114914,1318,748,100,0.637947725,1163,889,114,0.566764133
201,LEE,874,-68.2864076,45.3600615,78,343,12,0.185273159,181,216,36,0.455919395,230,168,35,0.577889447,226,173,34,0.56641604,162,230,41,0.413265306,182,213,38,0.460759494,188,204,41,0.479591837
202,LEEDS,2314,-70.1194984,44.3034024,348,719,7,0.326148079,605,437,32,0.580614203,553,480,41,0.535333979,589,444,41,0.57018393,442,584,48,0.43079922,590,446,38,0.569498069,539,491,44,0.523300971
203,LEVANT,2981,-68.9347611,44.8692358,339,804,47,0.296587927,536,583,71,0.478999106,577,536,77,0.518418688,590,530,70,0.526785714,436,675,79,0.392439244,542,572,76,0.486535009,505,608,77,0.453728661
204,LEWISTON,36225,-70.2147764,44.100351,6907,6396,377,0.519206194,7834,5093,753,0.606018411,8084,4789,807,0.627981046,8261,4608,811,0.64193022,6602,6192,886,0.516023136,8990,3978,712,0.693244911,7540,5320,820,0.586314152
205,LIBERTY,968,-69.3026507,44.3893688,185,276,4,0.401301518,268,184,13,0.592920354,257,190,18,0.574944072,261,187,17,0.582589286,216,226,23,0.488687783,286,165,14,0.634146341,271,177,17,0.604910714
206,LIMERICK,3022,-70.7936719,43.6884112,512,742,43,0.408293461,691,531,75,0.565466448,713,494,90,0.590720795,689,526,82,0.567078189,562,642,93,0.466777409,725,493,79,0.595238095,674,533,90,0.558409279
207,LIMESTONE,2173,-67.825816,46.9086023,310,333,25,0.482115086,405,227,36,0.640822785,440,196,32,0.691823899,423,210,35,0.668246445,339,289,40,0.539808917,451,185,32,0.709119497,365,266,37,0.57844691
208,LIMINGTON,3918,-70.7108924,43.7317442,635,1006,8,0.386959171,837,737,75,0.531766201,839,728,82,0.535417996,864,702,83,0.551724138,654,902,93,0.420308483,871,700,78,0.554423934,775,781,93,0.498071979
209,LINCOLN,4862,-68.5050006,45.3622301,604,1428,70,0.297244094,953,1026,123,0.481556342,1111,872,119,0.560262229,1095,887,120,0.55247225,790,1175,137,0.402035623,1017,964,121,0.513377082,963,1005,134,0.489329268
210,LINCOLNVILLE,2226,-69.0087018,44.2811973,634,576,20,0.523966942,804,381,45,0.678481013,732,434,64,0.627787307,728,440,62,0.623287671,627,529,74,0.542387543,773,405,52,0.656196944,735,429,66,0.631443299
211,LINNEUS,910,-67.9600193,46.038665,94,249,4,0.274052478,184,145,18,0.559270517,201,124,22,0.618461538,195,127,25,0.605590062,140,184,23,0.432098765,189,140,18,0.574468085,160,165,22,0.492307692
212,LISBON,9005,-70.1043704,44.0316013,1655,2423,59,0.405836194,1971,2012,154,0.494853126,2066,1906,165,0.520140987,2114,1868,155,0.530889001,1544,2402,191,0.391282311,2329,1664,144,0.583270724,1933,2025,179,0.488377969
213,LITCHFIELD,3658,-69.93356,44.1740739,663,1043,13,0.38862837,931,737,51,0.558153477,905,749,65,0.547158404,967,690,62,0.583584792,748,908,63,0.451690821,952,709,58,0.573148706,882,770,67,0.533898305
214,LITTLETON,989,-67.8411308,46.2308838,134,241,14,0.357333333,200,161,28,0.55401662,212,148,29,0.588888889,194,163,32,0.543417367,141,216,32,0.394957983,214,146,29,0.594444444,158,201,30,0.440111421
215,LIVERMORE,2119,-70.2081176,44.4078297,339,748,25,0.311867525,567,494,51,0.534401508,526,534,52,0.496226415,579,483,50,0.54519774,432,621,59,0.41025641,588,474,50,0.553672316,518,541,53,0.489140699
216,LOVELL,1134,-70.8930466,44.1255995,279,316,6,0.468907563,358,202,41,0.639285714,350,199,52,0.637522769,325,228,48,0.587703436,276,273,52,0.50273224,375,180,46,0.675675676,330,218,53,0.602189781
217,LOWELL,362,-68.4667778,45.1874242,53,135,2,0.281914894,81,97,12,0.45505618,87,91,12,0.488764045,89,90,11,0.497206704,62,115,13,0.350282486,81,97,12,0.45505618,79,99,12,0.443820225
218,LUBEC,1258,-66.9835907,44.8585863,329,393,10,0.45567867,443,263,26,0.627478754,487,210,35,0.698708752,443,260,29,0.630156472,355,339,38,0.511527378,454,252,26,0.64305949,486,222,24,0.686440678
219,LUDLOW,368,-67.957546,46.1480225,70,114,2,0.380434783,88,88,10,0.5,112,64,10,0.636363636,96,82,8,0.539325843,74,104,8,0.415730337,92,86,8,0.516853933,81,96,9,0.457627119
220,LYMAN,4517,-70.6379682,43.5050963,834,1173,47,0.41554559,1171,790,93,0.597144314,1136,810,108,0.583761562,1172,778,104,0.601025641,887,1051,116,0.457688338,1221,729,104,0.626153846,1091,855,108,0.560637205
221,MACHIAS,2027,-67.461376,44.7150789,298,414,30,0.418539326,428,261,53,0.621190131,436,244,62,0.641176471,431,254,57,0.62919708,336,338,68,0.49851632,447,236,59,0.654465593,431,253,58,0.630116959
222,MACHIASPORT,947,-67.3955242,44.6972521,159,276,8,0.365517241,223,188,32,0.542579075,245,171,27,0.588942308,235,173,35,0.575980392,189,213,41,0.470149254,253,164,26,0.606714628,276,136,31,0.669902913
223,MACWAHOC,74,-68.2627986,45.6283921,6,42,1,0.125,31,13,5,0.704545455,29,15,5,0.659090909,29,15,5,0.659090909,18,25,6,0.418604651,28,15,6,0.651162791,27,17,5,0.613636364
224,MADAWASKA,3735,-68.3217027,47.3553154,801,995,44,0.445991091,1134,602,104,0.653225806,1244,496,100,0.714942529,1174,567,99,0.674325101,968,756,116,0.561484919,1304,448,88,0.744292237,1062,672,106,0.612456747
225,MADISON,4620,-69.8797486,44.7975466,733,1205,18,0.378224974,1017,856,83,0.542979178,1092,779,85,0.58364511,1095,780,81,0.584,829,1044,83,0.442605446,1098,776,82,0.585912487,984,881,91,0.527613941
226,MAGALLOWAY,45,-71.0004465,44.8543365,0,17,0,0,7,10,0,0.411764706,5,12,0,0.294117647,6,11,0,0.352941176,3,14,0,0.176470588,2,15,0,0.117647059,5,12,0,0.294117647
227,MANCHESTER,2556,-69.8603256,44.324513,614,816,17,0.429370629,848,543,56,0.609633357,858,531,58,0.617710583,914,475,58,0.658027358,733,646,68,0.531544598,886,504,57,0.637410072,828,559,60,0.596971882
228,MAPLETON,1834,-68.1616248,46.6818041,250,677,12,0.269687163,488,421,30,0.536853685,532,371,36,0.589147287,538,364,37,0.596452328,381,517,41,0.424276169,529,381,29,0.581318681,408,494,37,0.45232816
229,MARIAVILLE,538,-68.4155785,44.7206287,76,139,6,0.353488372,114,102,5,0.527777778,107,105,9,0.504716981,110,104,7,0.514018692,90,122,9,0.424528302,109,104,8,0.511737089,101,110,10,0.478672986
230,MARSHFIELD,512,-67.4774923,44.7331326,78,191,3,0.289962825,134,124,14,0.519379845,135,122,15,0.525291829,139,122,11,0.53256705,106,153,13,0.409266409,137,122,13,0.528957529,138,119,15,0.536964981
231,MASARDIS,227,-68.3611507,46.5036534,30,82,3,0.267857143,72,40,3,0.642857143,72,42,1,0.631578947,67,44,4,0.603603604,57,53,5,0.518181818,74,37,4,0.666666667,63,48,4,0.567567568
232,MATTAWAMKEAG,651,-68.3544669,45.5136701,115,197,3,0.368589744,178,117,20,0.603389831,170,121,24,0.58419244,173,119,23,0.592465753,132,158,25,0.455172414,178,114,23,0.609589041,165,125,25,0.568965517
233,MAXFIELD,98,-68.7522632,45.2833559,11,37,2,0.229166667,24,23,3,0.510638298,20,26,4,0.434782609,23,24,3,0.489361702,15,31,4,0.326086957,17,30,3,0.361702128,20,28,2,0.416666667
234,MEDDYBEMPS,147,-67.3558247,45.0384096,24,63,0,0.275862069,36,48,3,0.428571429,37,48,2,0.435294118,52,32,3,0.619047619,34,49,4,0.409638554,33,52,2,0.388235294,37,48,2,0.435294118
235,MEDFORD,241,-68.8517011,45.2853307,29,84,1,0.256637168,52,57,5,0.47706422,62,45,7,0.579439252,56,51,7,0.523364486,41,67,6,0.37962963,46,62,6,0.425925926,47,61,6,0.435185185
236,MEDWAY,1310,-68.5298394,45.6122644,127,507,16,0.200315457,305,312,33,0.494327391,356,266,28,0.572347267,353,263,34,0.573051948,247,361,42,0.40625,322,301,27,0.516853933,315,306,29,0.507246377
237,MERCER,637,-69.9364462,44.6781171,138,227,1,0.378082192,209,145,12,0.59039548,213,140,13,0.603399433,201,153,12,0.56779661,168,183,15,0.478632479,206,147,13,0.583569405,191,159,16,0.545714286
238,MERRILL,250,-68.2322503,46.164217,39,73,0,0.348214286,48,59,5,0.448598131,46,59,7,0.438095238,58,48,6,0.547169811,41,65,6,0.386792453,53,58,1,0.477477477,41,65,6,0.386792453
239,MEXICO,2629,-70.5433579,44.5571093,420,686,13,0.379746835,675,412,32,0.620975161,710,379,30,0.651974288,695,392,32,0.639374425,511,575,33,0.47053407,736,353,30,0.675849403,642,445,32,0.590616375
240,MILBRIDGE,1294,-67.8808344,44.5353556,240,329,14,0.421792619,302,244,37,0.553113553,309,239,35,0.563868613,329,222,32,0.597096189,265,281,37,0.485347985,308,244,31,0.557971014,334,213,36,0.610603291
241,MILFORD,2980,-68.6439667,44.946216,455,834,21,0.352986811,756,503,51,0.600476569,789,459,62,0.632211538,818,439,53,0.650755768,646,604,60,0.5168,815,446,49,0.64631245,719,535,56,0.573365231
242,MILLINOCKET,4252,-68.7098119,45.6572639,647,1383,57,0.318719212,1134,847,106,0.572438163,1302,666,119,0.661585366,1205,775,107,0.608585859,945,1024,118,0.479939055,1251,736,100,0.62959235,1128,854,105,0.569122099
243,MILO,2285,-68.986263,45.2533339,278,696,12,0.285420945,503,433,50,0.537393162,555,382,49,0.592315902,591,353,42,0.626059322,448,478,60,0.483801296,554,385,47,0.58998935,506,430,50,0.540598291
244,MINOT,2586,-70.3471228,44.1563223,483,874,20,0.355932203,671,649,57,0.508333333,670,641,66,0.511060259,703,614,60,0.533788914,519,790,68,0.396485867,707,608,62,0.537642586,653,664,60,0.495823842
245,MONMOUTH,4136,-70.0356069,44.238682,674,1343,22,0.334159643,1195,792,52,0.60140916,1167,811,61,0.589989889,1194,776,69,0.606091371,1013,945,81,0.517364658,1232,756,51,0.61971831,1100,868,71,0.558943089
246,MONROE,943,-69.018094,44.6150724,165,290,7,0.362637363,292,151,19,0.659142212,257,187,18,0.578828829,244,193,25,0.558352403,186,246,30,0.430555556,273,173,16,0.612107623,244,191,27,0.56091954
247,MONSON,655,-69.5011619,45.2869936,119,272,16,0.304347826,211,173,23,0.549479167,199,182,26,0.522309711,203,185,19,0.523195876,155,225,27,0.407894737,199,177,31,0.529255319,176,202,29,0.465608466
248,MONTICELLO,741,-67.8425211,46.3083815,119,213,5,0.358433735,165,149,23,0.525477707,184,126,27,0.593548387,168,147,22,0.533333333,126,186,25,0.403846154,183,131,23,0.582802548,136,176,25,0.435897436
249,MONTVILLE,1087,-69.2803202,44.4372947,232,246,7,0.485355649,274,186,25,0.595652174,270,182,33,0.597345133,245,206,34,0.543237251,187,262,36,0.416481069,273,169,43,0.617647059,232,222,31,0.511013216
250,MORO,35,-68.3594763,46.1486604,3,21,0,0.125,7,16,1,0.304347826,5,18,1,0.217391304,7,16,1,0.304347826,8,15,1,0.347826087,6,17,1,0.260869565,7,16,1,0.304347826
251,MORRILL,889,-69.1492059,44.4431297,129,312,9,0.292517007,233,189,28,0.552132701,228,190,32,0.545454545,240,179,31,0.572792363,189,224,37,0.457627119,211,207,32,0.504784689,212,204,34,0.509615385
252,MOSCOW,505,-69.8910751,45.0713866,81,141,1,0.364864865,115,88,20,0.566502463,140,67,16,0.676328502,115,91,17,0.558252427,98,106,19,0.480392157,135,72,16,0.652173913,120,89,14,0.574162679
253,NAPLES,3969,-70.6180214,43.986313,881,969,8,0.476216216,991,816,51,0.5484228,1022,779,57,0.567462521,1057,751,50,0.584623894,781,1009,68,0.436312849,1072,732,54,0.594235033,942,851,65,0.525376464
254,NEWBURGH,1519,-69.0003898,44.7173675,256,507,11,0.335517693,406,333,35,0.549391069,412,321,41,0.56207367,404,329,41,0.551159618,314,413,47,0.431911967,411,319,44,0.563013699,386,344,44,0.528767123
255,NEWCASTLE,1767,-69.5386186,44.0365242,602,420,21,0.589041096,687,302,54,0.694641052,660,329,54,0.667340748,630,361,52,0.635721493,549,429,65,0.561349693,695,303,45,0.696392786,679,313,51,0.684475806
256,NEWFIELD,1585,-70.8470062,43.6481341,294,393,20,0.427947598,365,301,41,0.548048048,364,297,46,0.550680787,353,307,47,0.534848485,274,381,52,0.418320611,392,273,42,0.589473684,337,325,45,0.509063444
257,NEWPORT,3273,-69.2852859,44.8370741,449,911,20,0.330147059,728,592,60,0.551515152,779,539,62,0.591047041,794,527,59,0.601059803,589,724,67,0.448591013,765,558,57,0.578231293,698,620,62,0.529590288
258,NEWRY,353,-70.7885765,44.4884245,75,160,3,0.319148936,159,67,12,0.703539823,141,79,18,0.640909091,138,84,16,0.621621622,122,99,17,0.552036199,138,84,16,0.621621622,136,85,17,0.615384615
259,NOBLEBORO,1653,-69.4851938,44.0795596,410,515,15,0.443243243,549,351,40,0.61,526,367,47,0.589025756,522,374,44,0.582589286,522,374,44,0.582589286,424,462,54,0.478555305,506,393,41,0.562847608
260,NORRIDGEWOCK,3222,-69.7905955,44.7130794,521,915,29,0.36281337,758,625,82,0.548083876,810,572,83,0.586107091,804,573,88,0.583877996,622,751,92,0.453022578,797,581,87,0.578374456,726,647,92,0.528769119
261,NORTHFIELD,140,-67.5705504,44.8289649,37,63,1,0.37,53,44,4,0.546391753,53,43,5,0.552083333,54,40,7,0.574468085,42,52,7,0.446808511,57,38,6,0.6,55,40,6,0.578947368
262,NORTHPORT,1581,-68.9613175,44.3377823,431,414,28,0.510059172,498,334,41,0.598557692,472,359,42,0.567990373,477,350,46,0.576783555,406,415,52,0.494518879,527,307,39,0.631894484,503,325,45,0.607487923
263,NORWAY,4991,-70.5448096,44.2139566,971,1192,28,0.448913546,1234,852,105,0.5915628,1277,798,116,0.615421687,1212,860,119,0.584942085,939,1112,140,0.457825451,1339,750,102,0.640976544,1186,891,114,0.571015888
264,OAKFIELD,678,-68.1589208,46.1007097,81,232,15,0.258785942,157,142,29,0.525083612,185,113,30,0.620805369,181,115,32,0.611486486,108,183,37,0.371134021,181,116,31,0.609427609,143,152,33,0.484745763
265,OAKLAND,6309,-69.721995,44.5402221,1157,1657,44,0.411158493,1645,1121,92,0.59472162,1649,1086,123,0.602925046,1746,1004,108,0.634909091,1366,1360,132,0.501100514,1704,1046,108,0.619636364,1528,1210,120,0.558071585
266,OGUNQUIT,929,-70.5986223,43.2468352,533,227,25,0.701315789,512,228,45,0.691891892,543,189,53,0.741803279,546,189,50,0.742857143,472,254,59,0.650137741,566,168,51,0.771117166,568,171,46,0.768606225
267,ORIENT,140,-67.8400137,45.8170031,23,38,0,0.37704918,30,27,4,0.526315789,38,17,6,0.690909091,33,22,6,0.6,29,25,7,0.537037037,31,24,6,0.563636364,26,30,5,0.464285714
268,ORLAND,2181,-68.7378128,44.5706252,424,661,19,0.39078341,630,436,38,0.590994371,686,380,38,0.643527205,680,389,35,0.636108513,560,501,43,0.527803959,655,410,39,0.615023474,642,421,41,0.603951082
269,ORONO,10799,-68.6719411,44.8831125,1708,1757,63,0.492929293,2565,816,147,0.758651287,2492,843,193,0.747226387,2579,771,178,0.769850746,2223,1086,219,0.67180417,2698,686,144,0.797281324,2338,976,214,0.705491853
270,ORRINGTON,3688,-68.7904626,44.7202096,655,1234,18,0.346744309,969,861,77,0.529508197,1027,801,79,0.561816193,1119,720,68,0.608482871,852,970,85,0.467618002,996,841,70,0.542188351,973,857,77,0.531693989
271,OSBORN,66,-68.2361132,44.7788954,14,28,0,0.333333333,24,17,1,0.585365854,27,13,2,0.675,17,24,1,0.414634146,15,26,1,0.365853659,20,21,1,0.487804878,20,21,1,0.487804878
272,OTIS,659,-68.4528017,44.7122953,119,226,4,0.344927536,169,167,13,0.50297619,150,176,23,0.460122699,169,162,18,0.510574018,137,194,18,0.413897281,165,165,19,0.5,153,178,18,0.46223565
273,OTISFIELD,1806,-70.5492259,44.0903488,361,546,10,0.398015436,503,379,35,0.570294785,515,365,37,0.585227273,478,390,49,0.550691244,400,473,44,0.458190149,540,339,38,0.614334471,489,385,43,0.559496568
274,OXFORD,4096,-70.4931557,44.1317459,636,1147,14,0.356702187,915,816,66,0.528596187,993,747,57,0.570689655,980,753,64,0.565493364,719,1005,73,0.417053364,1026,714,57,0.589655172,890,842,65,0.513856813
275,PALERMO,1521,-69.4672352,44.4059902,247,479,20,0.340220386,378,324,44,0.538461538,393,307,46,0.561428571,401,297,48,0.574498567,311,385,50,0.44683908,381,318,47,0.545064378,371,328,47,0.530758226
276,PALMYRA,1975,-69.3586588,44.8464519,245,604,22,0.288574794,456,377,38,0.547418968,479,351,41,0.577108434,454,370,47,0.550970874,345,477,49,0.419708029,477,353,41,0.574698795,433,391,47,0.525485437
277,PARIS,5152,-70.5006152,44.2597917,925,1305,38,0.414798206,1242,934,92,0.570772059,1270,903,95,0.584445467,1242,923,103,0.573672055,922,1222,124,0.430037313,1357,812,99,0.625633933,1148,1001,119,0.534201954
278,PARKMAN,795,-69.4331038,45.1336651,101,324,3,0.237647059,186,215,27,0.463840399,213,191,24,0.527227723,183,220,25,0.454094293,137,261,30,0.344221106,172,228,28,0.43,162,234,32,0.409090909
279,PARSONSFIELD,1962,-70.9286755,43.7270214,366,439,8,0.454658385,443,322,48,0.579084967,445,315,53,0.585526316,449,315,49,0.587696335,359,399,55,0.473614776,454,306,53,0.597368421,405,358,50,0.530799476
280,PASSADUMKEAG,358,-68.6166937,45.1853362,47,144,2,0.246073298,74,106,13,0.411111111,100,80,13,0.555555556,88,89,16,0.497175141,56,119,18,0.32,82,99,12,0.453038674,73,104,16,0.412429379
281,PATTEN,970,-68.4461424,45.9964392,109,347,15,0.239035088,224,211,36,0.514942529,242,189,40,0.561484919,254,173,44,0.594847775,177,250,44,0.414519906,238,195,38,0.54965358,209,222,40,0.484918794
282,PEMBROKE,788,-67.1619293,44.9536891,133,279,4,0.322815534,216,179,21,0.546835443,223,177,16,0.5575,220,175,21,0.556962025,159,239,18,0.399497487,219,182,15,0.546134663,240,162,14,0.597014925
283,PENOBSCOT,1222,-68.7111394,44.4645202,329,343,6,0.489583333,375,273,30,0.578703704,344,298,36,0.535825545,369,278,31,0.570324575,301,334,43,0.474015748,376,262,40,0.589341693,345,301,32,0.534055728
284,PERHAM,365,-68.1975086,46.8440085,63,101,9,0.384146341,76,83,14,0.477987421,90,71,12,0.559006211,77,85,11,0.475308642,63,97,13,0.39375,86,76,11,0.530864198,64,98,11,0.395061728
285,PERRY,927,-67.0748807,44.974757,152,253,1,0.375308642,192,203,11,0.486075949,201,192,13,0.511450382,195,199,12,0.494923858,152,238,16,0.38974359,205,188,13,0.521628499,211,185,10,0.532828283
286,PERU,1511,-70.4062771,44.5065458,250,590,6,0.297619048,486,336,24,0.591240876,477,341,28,0.583129584,482,340,24,0.586374696,373,445,28,0.45599022,487,330,29,0.596083231,427,384,35,0.526510481
287,PHILLIPS,1022,-70.3395105,44.8231127,194,326,16,0.373076923,285,230,21,0.553398058,292,219,25,0.571428571,285,224,27,0.559921415,212,297,27,0.416502947,315,199,22,0.612840467,269,240,27,0.52848723
288,PHIPPSBURG,2268,-69.8147684,43.820638,526,728,19,0.419457735,744,473,56,0.611339359,733,478,62,0.605284889,751,455,67,0.622719735,610,584,79,0.510887772,779,430,64,0.64433416,807,395,71,0.671381032
289,PITTSFIELD,3994,-69.3833847,44.7825145,531,1001,53,0.346605744,845,641,99,0.568640646,912,575,98,0.6133154,907,581,97,0.609543011,725,751,109,0.491192412,903,584,98,0.607262946,839,643,103,0.566126856
290,PITTSTON,2735,-69.7555995,44.2217367,524,919,16,0.363132363,772,628,59,0.551428571,766,628,65,0.549497848,803,593,63,0.5752149,606,787,66,0.435032304,781,615,63,0.559455587,725,667,67,0.520833333
291,PLYMOUTH,1350,-69.2103252,44.7672891,162,409,20,0.283712785,274,269,48,0.504604052,289,249,53,0.537174721,271,269,51,0.501851852,197,337,57,0.368913858,289,253,49,0.533210332,263,279,49,0.485239852
292,POLAND,5647,-70.3936675,44.0606281,1091,1608,20,0.404223787,1459,1191,69,0.550566038,1437,1198,84,0.545351044,1477,1161,81,0.559893859,1081,1542,96,0.412123523,1525,1104,90,0.580068467,1369,1251,99,0.522519084
293,PORTER,1520,-70.9332266,43.7961667,261,434,9,0.375539568,356,303,45,0.540212443,393,270,41,0.592760181,359,300,45,0.544764795,266,384,54,0.409230769,395,260,49,0.603053435,347,305,52,0.532208589
294,PORTLAND,66215,-70.2568189,43.6590993,20305,9029,814,0.692200177,20690,7582,1876,0.731819468,20961,7262,1925,0.742692131,21193,6991,1964,0.751951462,18497,9354,2297,0.664141323,22968,5480,1700,0.807367829,20474,7525,2149,0.731240401
295,POWNAL,1549,-70.1803764,43.9133191,406,531,15,0.433297759,506,395,51,0.561598224,477,428,47,0.527071823,500,400,52,0.555555556,393,504,55,0.43812709,529,377,46,0.58388521,462,436,54,0.514476615
296,PRINCETON,792,-67.5721648,45.2234034,86,337,4,0.203309693,223,184,20,0.547911548,256,149,22,0.632098765,241,163,23,0.596534653,170,232,25,0.422885572,226,180,21,0.556650246,234,175,18,0.572127139
297,PROSPECT,746,-68.8647555,44.5531298,91,223,16,0.289808917,153,154,23,0.498371336,166,139,25,0.544262295,150,157,23,0.488599349,129,173,28,0.427152318,153,150,27,0.504950495,154,151,25,0.504918033
298,RANDOLPH,1709,-69.7666546,44.2306461,393,444,20,0.46953405,494,326,37,0.602439024,494,326,37,0.602439024,524,296,37,0.63902439,395,418,44,0.485854859,526,289,42,0.645398773,484,329,44,0.595325953
299,RANGELEY,1155,-70.6427102,44.9656821,266,477,14,0.358008075,425,289,43,0.595238095,483,235,39,0.67270195,450,261,46,0.632911392,379,331,47,0.533802817,491,229,37,0.681944444,440,281,36,0.610263523
300,RAYMOND,4523,-70.468437,43.9015631,1045,1271,34,0.451208981,1248,1010,92,0.552701506,1266,983,101,0.562916852,1354,900,96,0.600709849,1091,1150,109,0.486836234,1356,903,91,0.600265604,1256,998,96,0.557231588
301,READFIELD,2571,-69.9667188,44.3878453,608,825,27,0.424284717,907,507,46,0.641442716,858,546,56,0.611111111,885,516,59,0.631691649,730,664,66,0.523672884,875,528,57,0.623663578,822,571,67,0.590093324
302,REED,144,-68.1436099,45.724382,25,51,0,0.328947368,31,33,12,0.484375,37,26,13,0.587301587,33,31,12,0.515625,15,45,16,0.25,30,33,13,0.476190476,24,35,17,0.406779661
303,RICHMOND,3470,-69.8025788,44.0880682,701,914,16,0.434055728,878,687,66,0.561022364,895,665,71,0.573717949,920,640,71,0.58974359,709,838,84,0.458306399,945,619,67,0.604219949,847,707,77,0.545045045
304,RIPLEY,471,-69.3717134,44.9911704,67,146,1,0.314553991,112,98,4,0.533333333,117,91,6,0.5625,117,90,7,0.565217391,90,116,8,0.436893204,115,95,4,0.547619048,108,98,8,0.524271845
305,ROBBINSTON,559,-67.1094283,45.0781324,96,176,7,0.352941176,131,139,9,0.485185185,161,105,13,0.605263158,151,118,10,0.56133829,122,145,12,0.456928839,160,109,10,0.594795539,152,115,12,0.56928839
306,ROCKLAND,7165,-69.1089293,44.1036914,1607,1034,71,0.608481636,1608,958,146,0.626656274,1601,935,176,0.631309148,1586,959,167,0.623182711,1315,1203,194,0.522239873,1779,790,143,0.692487349,1631,924,157,0.638356164
307,ROCKPORT,3363,-69.0760975,44.1844817,1051,814,37,0.563538874,1195,628,79,0.655512891,1139,660,103,0.633129516,1158,641,103,0.643690939,1036,744,122,0.582022472,1231,588,83,0.676745465,1166,634,102,0.647777778
308,ROME,1007,-69.903486,44.5722051,202,330,5,0.379699248,302,200,35,0.601593625,310,196,31,0.612648221,307,199,31,0.606719368,237,267,33,0.470238095,314,188,35,0.625498008,280,219,38,0.561122244
309,ROXBURY,361,-70.593401,44.6697827,66,162,1,0.289473684,122,100,7,0.54954955,115,107,7,0.518018018,122,101,6,0.547085202,91,130,8,0.411764706,126,96,7,0.567567568,104,118,7,0.468468468
310,RUMFORD,5744,-70.5508829,44.5536606,916,1430,19,0.390451833,1488,815,62,0.646113765,1505,786,74,0.656918376,1423,872,70,0.620043573,1133,1157,75,0.494759825,1580,725,60,0.685466377,1368,927,70,0.596078431
311,SABATTUS,5036,-70.1031247,44.1152935,941,1242,31,0.431058177,1077,1039,98,0.508979206,1068,1027,119,0.509785203,1153,950,111,0.548264384,816,1271,127,0.390991854,1177,936,101,0.557027922,991,1109,114,0.471904762
312,SACO,19964,-70.4428286,43.5009176,4344,3776,242,0.534975369,4908,3001,453,0.620558857,4999,2878,485,0.634632474,5163,2714,485,0.655452583,4196,3610,556,0.537535229,5407,2512,443,0.682788231,4816,3040,506,0.613034623
313,SANFORD,21223,-70.7742804,43.4391627,3738,3586,159,0.510376843,4139,2912,432,0.587008935,4325,2732,426,0.612866657,4318,2739,426,0.611874734,3318,3659,506,0.475562563,4732,2355,396,0.667701425,4056,2965,462,0.577695485
314,SANGERVILLE,1269,-69.357317,45.1645956,191,412,8,0.316749585,289,294,28,0.495711835,313,272,26,0.535042735,320,263,28,0.548885077,237,338,36,0.412173913,314,274,23,0.534013605,273,308,30,0.469879518
315,SCARBOROUGH,20991,-70.3344921,43.5901974,5628,4646,213,0.547790539,5721,4232,534,0.574801567,6008,3893,586,0.606807393,6464,3504,519,0.64847512,5224,4648,615,0.52917342,6443,3519,525,0.646757679,5946,3968,573,0.599757918
316,SEARSMONT,1417,-69.1950411,44.3617419,241,399,9,0.3765625,378,245,26,0.606741573,365,247,37,0.596405229,348,267,34,0.565853659,279,331,39,0.457377049,368,247,34,0.598373984,348,267,34,0.565853659
317,SEARSPORT,2634,-68.9038627,44.463934,519,669,26,0.436868687,661,484,69,0.577292576,651,491,72,0.570052539,651,486,77,0.572559367,511,617,86,0.453014184,680,463,71,0.594925634,670,471,73,0.587204207
318,SEBAGO,1829,-70.677518,43.8872801,385,529,8,0.421225383,490,392,40,0.555555556,511,369,42,0.580681818,518,359,45,0.590649943,421,455,46,0.480593607,549,332,41,0.623155505,497,377,48,0.568649886
319,SEBEC,592,-69.1167087,45.2714408,74,258,4,0.222891566,168,159,9,0.513761468,180,144,12,0.555555556,180,147,9,0.550458716,134,190,12,0.413580247,158,169,9,0.483180428,149,174,13,0.46130031
320,SEBOEIS,34,-68.7111424,45.3631091,4,22,0,0.153846154,15,10,1,0.6,16,9,1,0.64,15,10,1,0.6,13,12,1,0.52,16,9,1,0.64,13,12,1,0.52
321,SEDGWICK,1176,-68.6155184,44.3040651,317,269,17,0.540955631,353,214,36,0.622574956,350,206,47,0.629496403,347,212,44,0.620751342,295,265,43,0.526785714,358,212,33,0.628070175,359,201,43,0.641071429
322,SHAPLEIGH,2754,-70.8481164,43.5406359,490,712,14,0.40765391,661,511,44,0.563993174,670,497,49,0.57412168,668,498,50,0.572898799,516,644,56,0.444827586,725,446,45,0.61912895,610,554,52,0.524054983
323,SHERMAN,778,-68.4178063,45.8711632,139,405,10,0.255514706,206,315,33,0.395393474,253,269,32,0.48467433,254,273,27,0.481973435,174,345,35,0.335260116,202,322,30,0.385496183,184,337,33,0.353166987
324,SHIRLEY,225,-69.633903,45.3476081,40,91,3,0.305343511,60,67,7,0.472440945,73,55,6,0.5703125,67,58,9,0.536,45,80,9,0.36,62,64,8,0.492063492,59,67,8,0.468253968
325,SIDNEY,4468,-69.7226248,44.4530868,721,1479,21,0.327727273,1191,951,79,0.556022409,1204,928,89,0.564727955,1288,850,83,0.60243218,993,1129,99,0.46795476,1218,926,77,0.568097015,1112,1014,95,0.523047977
326,SKOWHEGAN,8239,-69.7193803,44.7650366,1325,2129,67,0.383613202,1959,1388,174,0.585300269,2024,1321,176,0.605082212,2040,1308,173,0.609318996,1597,1730,194,0.480012023,2133,1222,166,0.635767511,1880,1458,183,0.563211504
327,SMITHFIELD,1009,-69.8294968,44.6303411,180,332,6,0.3515625,288,211,19,0.577154309,286,212,20,0.574297189,296,202,20,0.59437751,246,247,25,0.498985801,285,213,20,0.572289157,265,230,23,0.535353535
328,SMYRNA,418,-68.1203515,46.1644547,28,83,0,0.252252252,52,54,5,0.490566038,59,47,5,0.556603774,56,52,3,0.518518519,38,68,5,0.358490566,51,55,5,0.481132075,41,65,5,0.386792453
329,SOLON,1076,-69.858391,44.949502,199,329,3,0.376893939,287,223,21,0.562745098,293,218,20,0.573385519,288,220,23,0.566929134,217,291,23,0.427165354,305,209,17,0.593385214,246,263,22,0.483300589
330,SOMERVILLE,565,-69.4889674,44.3092443,95,160,1,0.37254902,144,104,8,0.580645161,143,104,9,0.578947368,131,114,11,0.534693878,106,135,15,0.439834025,144,101,11,0.587755102,130,114,12,0.532786885
331,SORRENTO,268,-68.1772341,44.4734117,94,90,6,0.510869565,112,69,9,0.61878453,118,61,11,0.659217877,124,56,10,0.688888889,118,60,12,0.662921348,117,65,8,0.642857143,121,61,8,0.664835165
332,SOUTHPORT,600,-69.6586568,43.8409158,213,171,4,0.5546875,218,156,14,0.582887701,228,146,14,0.609625668,204,166,18,0.551351351,190,181,17,0.51212938,234,143,11,0.620689655,248,125,15,0.664879357
333,SPRINGFIELD,425,-68.1562304,45.376663,35,121,4,0.224358974,72,79,9,0.476821192,72,78,10,0.48,76,72,12,0.513513514,59,89,12,0.398648649,59,89,12,0.398648649,64,82,14,0.438356164
334,STACYVILLE,383,-68.4290992,45.8992168,39,137,2,0.221590909,74,82,22,0.474358974,77,76,25,0.503267974,65,86,27,0.430463576,57,96,25,0.37254902,65,88,25,0.424836601,63,92,23,0.406451613
335,STANDISH,10099,-70.5509356,43.7355927,1896,2464,57,0.434862385,2419,1866,132,0.564527421,2459,1818,140,0.574935703,2556,1721,140,0.597615151,1974,2281,162,0.463924794,2532,1739,146,0.592835402,2326,1927,164,0.546908065
336,STARKS,636,-69.9661707,44.7306156,104,188,4,0.356164384,179,103,14,0.634751773,163,116,17,0.584229391,157,121,18,0.564748201,119,159,18,0.428057554,168,112,16,0.6,154,122,20,0.557971014
337,STETSON,1190,-69.1431864,44.8919352,194,364,4,0.347670251,264,271,27,0.493457944,271,266,25,0.504655493,283,250,29,0.530956848,224,309,29,0.420262664,264,275,23,0.489795918,233,302,27,0.435514019
338,STEUBEN,1132,-67.9652562,44.5107169,207,286,20,0.419878296,243,195,75,0.554794521,279,157,77,0.639908257,275,169,69,0.619369369,209,225,79,0.48156682,272,178,63,0.604444444,273,165,75,0.623287671
339,STOCKHOLM,232,-68.1394756,47.0422642,51,84,3,0.377777778,76,55,7,0.580152672,77,52,9,0.596899225,75,56,7,0.572519084,59,71,8,0.453846154,77,53,8,0.592307692,62,67,9,0.480620155
340,STONEHAM,248,-70.8125232,44.2503507,52,99,1,0.344370861,95,45,12,0.678571429,88,50,14,0.637681159,87,52,13,0.625899281,59,77,16,0.433823529,91,45,16,0.669117647,88,47,17,0.651851852
341,STONINGTON,1032,-68.6666926,44.156192,264,204,10,0.564102564,291,166,21,0.636761488,314,138,26,0.694690265,301,151,26,0.665929204,237,211,30,0.529017857,324,129,25,0.715231788,342,111,25,0.754966887
342,STOW,456,-70.9850708,44.160623,87,86,5,0.502890173,98,68,12,0.590361446,97,67,14,0.591463415,95,67,16,0.586419753,73,91,14,0.445121951,109,58,11,0.652694611,87,79,12,0.524096386
343,STRONG,1160,-70.2208981,44.8075572,160,411,3,0.280210158,284,274,16,0.508960573,328,230,16,0.58781362,287,267,20,0.518050542,219,338,17,0.393177738,296,266,12,0.526690391,266,293,15,0.475849732
344,SULLIVAN,1266,-68.1518287,44.5265074,255,268,10,0.487571702,296,210,27,0.584980237,308,199,26,0.607495069,310,200,23,0.607843137,244,265,24,0.479371316,293,213,27,0.579051383,293,213,27,0.579051383
345,SUMNER,919,-70.4383944,44.3920113,165,313,6,0.345188285,221,246,17,0.473233405,236,231,17,0.505353319,232,236,16,0.495726496,174,288,22,0.376623377,229,239,16,0.489316239,209,252,23,0.453362256
346,SURRY,1502,-68.5016874,44.4959099,407,423,20,0.490361446,497,310,43,0.615861214,526,279,45,0.653416149,533,272,45,0.662111801,482,315,53,0.60476788,526,284,40,0.649382716,497,310,43,0.615861214
347,SWANVILLE,1351,-68.9978129,44.5211855,204,382,20,0.348122867,318,250,38,0.559859155,302,260,44,0.537366548,282,286,38,0.496478873,240,321,45,0.427807487,326,248,32,0.567944251,300,270,36,0.526315789
348,SWEDEN,410,-70.8228959,44.133285,111,93,1,0.544117647,137,63,5,0.685,130,66,9,0.663265306,138,61,6,0.693467337,123,75,7,0.621212121,140,58,7,0.707070707,125,75,5,0.625
349,TALMADGE,61,-67.7541957,45.3386197,4,28,0,0.125,17,13,2,0.566666667,16,14,2,0.533333333,14,15,3,0.482758621,10,19,3,0.344827586,12,17,3,0.413793103,15,14,3,0.517241379
350,TEMPLE,517,-70.2264519,44.6850592,125,150,6,0.454545455,158,113,10,0.58302583,164,103,14,0.61423221,142,125,14,0.531835206,108,158,15,0.406015038,157,110,14,0.588014981,141,125,15,0.530075188
351,THOMASTON,2745,-69.1816955,44.0789574,618,547,23,0.530472103,735,401,52,0.647007042,726,406,56,0.641342756,711,412,65,0.633125557,579,542,67,0.516503122,773,373,42,0.67452007,744,387,57,0.657824934
352,THORNDIKE,893,-69.236966,44.6029084,103,242,7,0.298550725,197,132,23,0.598784195,204,116,32,0.6375,184,142,26,0.564417178,136,188,28,0.419753086,201,125,26,0.616564417,172,152,28,0.530864198
353,TOPSFIELD,225,-67.7357917,45.4188893,18,89,0,0.168224299,41,57,9,0.418367347,51,49,7,0.51,49,50,8,0.494949495,32,66,9,0.326530612,37,61,9,0.37755102,37,64,6,0.366336634
354,TOPSHAM,8878,-69.9759459,43.9275435,2446,2520,92,0.492549335,3003,1850,205,0.618792499,3008,1820,230,0.623032312,3084,1730,244,0.640631491,2572,2213,273,0.537513062,3236,1616,206,0.666941467,2915,1870,273,0.609195402
355,TREMONT,1599,-68.3519157,44.2537017,404,341,10,0.542281879,483,235,37,0.67270195,492,231,32,0.680497925,494,223,38,0.688981869,444,272,39,0.620111732,474,244,37,0.660167131,499,219,37,0.694986072
356,TRENTON,1558,-68.3700178,44.4389668,330,356,14,0.481049563,409,265,26,0.606824926,410,258,32,0.613772455,441,227,32,0.660179641,398,270,32,0.595808383,406,260,34,0.60960961,430,232,38,0.649546828
357,TROY,1047,-69.2416622,44.6648414,164,292,9,0.359649123,252,195,18,0.563758389,252,193,20,0.566292135,235,206,24,0.532879819,197,240,28,0.450800915,265,181,19,0.594170404,228,212,25,0.518181818
358,TURNER,5846,-70.2561671,44.2564588,954,1838,20,0.341690544,1506,1208,98,0.554900516,1519,1186,107,0.56155268,1526,1188,98,0.562269713,1128,1567,117,0.418552876,1540,1174,98,0.56742815,1359,1343,110,0.50296077
359,UNION,2255,-69.293927,44.2296917,521,669,10,0.437815126,644,502,54,0.561954625,617,524,59,0.540753725,617,521,62,0.542179262,506,628,66,0.446208113,644,507,49,0.559513467,602,541,57,0.526684164
360,UNITY,2133,-69.3345032,44.6111643,223,569,16,0.281565657,447,310,51,0.590488771,457,291,60,0.610962567,427,321,60,0.570855615,335,403,70,0.453929539,473,276,59,0.631508678,399,343,66,0.537735849
361,UPTON,110,-71.0106316,44.6942207,25,29,2,0.462962963,24,28,4,0.461538462,26,27,3,0.490566038,21,30,5,0.411764706,16,35,5,0.31372549,26,25,5,0.509803922,27,23,6,0.54
362,VANCEBORO,133,-67.4300098,45.5626167,22,62,1,0.261904762,42,40,3,0.512195122,47,34,4,0.580246914,47,34,4,0.580246914,39,42,4,0.481481481,46,35,4,0.567901235,42,40,3,0.512195122
363,VASSALBORO,4368,-69.6777605,44.4588807,766,1317,17,0.367738838,1177,850,73,0.580661075,1170,855,75,0.577777778,1209,822,69,0.595273264,962,1053,85,0.477419355,1191,845,64,0.58497053,1100,928,72,0.542406312
364,VEAZIE,1832,-68.7053114,44.8386814,395,480,25,0.451428571,556,309,35,0.642774566,568,292,40,0.660465116,618,244,38,0.716937355,527,338,35,0.609248555,592,276,32,0.68202765,516,344,40,0.6
365,VIENNA,573,-69.9847779,44.5333976,154,189,7,0.448979592,217,118,15,0.647761194,204,130,16,0.610778443,203,132,15,0.605970149,161,171,18,0.484939759,204,131,15,0.608955224,183,153,14,0.544642857
366,VINALHAVEN,1127,-68.836749,44.0487345,338,258,22,0.567114094,389,184,45,0.678883072,410,162,46,0.716783217,395,174,49,0.694200351,328,234,56,0.583629893,404,169,45,0.705061082,457,117,44,0.796167247
367,WADE,263,-68.2264347,46.7841686,46,73,1,0.386554622,62,52,6,0.543859649,69,47,4,0.594827586,73,43,4,0.629310345,48,66,6,0.421052632,66,49,5,0.573913043,53,61,6,0.464912281
368,WAITE,95,-67.6902794,45.3256262,15,35,1,0.3,22,26,3,0.458333333,31,17,3,0.645833333,33,15,3,0.6875,22,24,5,0.47826087,25,22,4,0.531914894,18,29,4,0.382978723
369,WALDO,864,-69.0761483,44.5125736,123,260,4,0.321148825,215,150,22,0.589041096,201,159,27,0.558333333,193,169,25,0.533149171,159,200,28,0.442896936,205,155,27,0.569444444,201,161,25,0.555248619
370,WALDOBORO,5069,-69.3756017,44.0952725,943,1226,35,0.434762563,1253,856,95,0.594120436,1210,887,107,0.577014783,1225,859,120,0.5878119,1015,1063,126,0.488450433,1246,857,101,0.592486923,1302,797,105,0.620295379
371,WALES,1617,-70.0608896,44.1523636,253,484,12,0.343283582,375,350,24,0.517241379,325,396,28,0.450762829,381,344,24,0.525517241,282,441,26,0.390041494,358,367,24,0.493793103,323,402,24,0.445517241
372,WALLAGRASS,525,-68.5972677,47.1294837,91,173,6,0.34469697,168,87,15,0.658823529,166,83,21,0.666666667,157,90,23,0.63562753,117,128,25,0.47755102,169,79,22,0.681451613,137,110,23,0.55465587
373,WALTHAM,339,-68.3383535,44.7092404,36,126,5,0.222222222,72,81,14,0.470588235,72,82,13,0.467532468,72,80,15,0.473684211,51,99,17,0.34,70,83,14,0.45751634,67,87,13,0.435064935
374,WARREN,4844,-69.2531464,44.116967,576,1014,23,0.362264151,868,680,65,0.560723514,844,698,71,0.547341115,882,659,72,0.572355613,678,851,84,0.443427077,842,712,59,0.541827542,807,731,75,0.524707412
375,WASHBURN,1541,-68.1567015,46.7882172,229,410,20,0.358372457,349,256,54,0.576859504,400,208,51,0.657894737,383,225,51,0.629934211,295,314,50,0.484400657,392,218,49,0.642622951,326,281,52,0.537067545
376,WASHINGTON,1514,-69.3676576,44.2735583,278,486,7,0.363874346,425,310,36,0.578231293,438,296,37,0.596730245,402,328,41,0.550684932,320,405,46,0.44137931,402,332,37,0.547683924,399,329,43,0.548076923
377,WATERBORO,7969,-70.7145912,43.5354332,1102,1929,48,0.363576377,1517,1454,108,0.510602491,1582,1365,132,0.536817102,1664,1301,114,0.561214165,1193,1747,139,0.405782313,1686,1276,117,0.569209993,1432,1520,127,0.485094851
378,WATERFORD,1590,-70.7091738,44.1932639,312,467,28,0.400513479,460,296,51,0.608465608,449,307,51,0.593915344,421,335,51,0.556878307,330,415,62,0.44295302,453,304,50,0.598414795,388,361,58,0.518024032
379,WATERVILLE,16558,-69.6317121,44.5520105,2923,2601,189,0.529145547,3630,1720,363,0.678504673,3754,1568,391,0.70537392,3769,1563,381,0.706864216,3167,2109,437,0.600265353,4011,1359,343,0.746927374,3581,1727,405,0.67464205
380,WAYNE,1156,-70.0661649,44.3486793,287,407,13,0.413544669,481,207,19,0.699127907,457,225,25,0.670087977,477,207,23,0.697368421,411,266,30,0.607090103,480,210,17,0.695652174,464,219,24,0.679355783
381,WEBSTER,81,-68.1972396,45.4758958,7,13,0,0.35,15,3,2,0.833333333,15,3,2,0.833333333,16,2,2,0.888888889,8,9,3,0.470588235,13,5,2,0.722222222,12,6,2,0.666666667
382,WELD,417,-70.4214542,44.6986707,91,168,5,0.351351351,141,110,13,0.561752988,149,101,14,0.596,133,116,15,0.534136546,112,133,19,0.457142857,142,105,17,0.574898785,121,126,17,0.489878543
383,WELLINGTON,245,-69.5970206,45.0400981,54,50,4,0.519230769,60,43,5,0.582524272,56,44,8,0.56,60,41,7,0.594059406,46,52,10,0.469387755,59,41,8,0.59,55,45,8,0.55
384,WELLS,10675,-70.5805209,43.3222329,2648,2260,98,0.539527302,3126,1598,282,0.66172735,3202,1518,286,0.678389831,3226,1489,291,0.684199364,2726,1923,357,0.586362659,3385,1340,281,0.716402116,3156,1541,309,0.671918246
385,WESLEY,93,-67.6608307,44.952297,14,55,3,0.202898551,38,30,4,0.558823529,30,38,4,0.441176471,37,31,4,0.544117647,28,40,4,0.411764706,37,32,3,0.536231884,32,36,4,0.470588235
386,WESTBROOK,19074,-70.3711617,43.6770252,4083,3472,163,0.540436797,4570,2784,364,0.621430514,4684,2646,388,0.639017735,4907,2432,379,0.668619703,3931,3344,443,0.540343643,5200,2167,351,0.705850414,4545,2769,404,0.621410993
387,WESTFIELD,509,-67.9226825,46.5698715,89,127,1,0.412037037,107,105,5,0.504716981,131,81,5,0.617924528,117,92,8,0.559808612,92,116,9,0.442307692,136,75,6,0.644549763,104,107,6,0.492890995
388,WESTMANLAND,57,-68.236303,46.9755827,13,26,0,0.333333333,24,14,1,0.631578947,21,17,1,0.552631579,24,14,1,0.631578947,20,18,1,0.526315789,22,16,1,0.578947368,19,18,2,0.513513514
389,WESTON,210,-67.8780687,45.7331159,33,86,1,0.277310924,62,53,5,0.539130435,66,45,9,0.594594595,60,53,7,0.530973451,39,74,7,0.345132743,57,56,7,0.504424779,52,60,8,0.464285714
390,WHITEFIELD,2280,-69.6253222,44.1700735,451,646,44,0.41112124,661,423,57,0.609778598,614,457,70,0.573295985,610,468,63,0.565862709,477,591,73,0.446629213,607,472,62,0.562557924,599,478,64,0.556174559
391,WHITING,480,-67.1755411,44.7909119,126,181,6,0.410423453,159,143,11,0.526490066,167,134,12,0.554817276,141,161,11,0.466887417,125,174,14,0.418060201,156,145,12,0.518272425,165,137,11,0.546357616
392,WHITNEYVILLE,204,-67.5233265,44.7220213,32,60,0,0.347826087,51,38,3,0.573033708,47,40,5,0.540229885,55,34,3,0.617977528,36,53,3,0.404494382,44,43,5,0.505747126,52,35,5,0.597701149
393,WILLIMANTIC,141,-69.4083826,45.3067165,25,52,0,0.324675325,31,39,7,0.442857143,32,39,6,0.450704225,28,42,7,0.4,18,51,8,0.260869565,28,43,6,0.394366197,28,42,7,0.4
394,WILTON,3960,-70.2280983,44.5926953,623,1190,41,0.343629344,930,851,73,0.522178551,989,777,88,0.56002265,976,804,74,0.548314607,782,989,83,0.441558442,987,794,73,0.554183043,890,891,73,0.499719259
395,WINDHAM,18540,-70.398706,43.7588577,3428,4252,102,0.446354167,4155,3317,310,0.556076017,4280,3171,331,0.574419541,4602,2850,330,0.617552335,3493,3902,387,0.47234618,4622,2851,309,0.618493242,4078,3361,343,0.548191961
396,WINDSOR,2609,-69.580599,44.3106263,361,798,15,0.31147541,658,466,50,0.585409253,617,498,59,0.553363229,636,481,57,0.569382274,475,636,63,0.427542754,613,510,51,0.545859305,605,511,58,0.542114695
397,WINN,406,-68.3326304,45.4512875,54,101,3,0.348387097,69,81,8,0.46,91,58,9,0.610738255,87,64,7,0.57615894,65,83,10,0.439189189,77,75,6,0.506578947,69,79,10,0.466216216
398,WINSLOW,7618,-69.6203137,44.5459679,1542,2166,50,0.415857605,2192,1410,156,0.608550805,2260,1331,167,0.629351156,2305,1298,155,0.639744657,1845,1733,180,0.515651202,2342,1262,154,0.649833518,2068,1517,173,0.576847978
399,WINTERPORT,3985,-68.8449792,44.6377864,666,1035,12,0.391534392,898,772,43,0.537724551,930,734,49,0.558894231,962,706,45,0.576738609,764,897,52,0.459963877,931,743,39,0.556152927,851,815,47,0.510804322
400,WINTERVILLE,207,-68.644972,46.9544298,47,71,5,0.398305085,68,44,11,0.607142857,68,44,11,0.607142857,70,41,12,0.630630631,60,51,12,0.540540541,74,36,13,0.672727273,69,43,11,0.616071429
401,WINTHROP,5993,-69.9769721,44.3050332,1216,1871,59,0.393909945,1898,1127,121,0.627438017,1855,1165,126,0.614238411,1944,1077,125,0.643495531,1613,1383,150,0.538384513,1933,1097,116,0.637953795,1811,1197,138,0.60206117
402,WISCASSET,3763,-69.665583,44.0028921,772,997,18,0.436404748,967,759,61,0.560254925,1000,717,70,0.582411182,1020,695,72,0.594752187,822,877,88,0.483814008,1033,687,67,0.600581395,1057,663,67,0.614534884
403,WOODLAND,1143,-68.1209284,46.8822935,209,330,13,0.387755102,318,211,23,0.601134216,321,204,27,0.611428571,318,209,25,0.60341556,234,291,27,0.445714286,345,180,27,0.657142857,274,249,29,0.523900574
404,WOODSTOCK,1296,-70.5994659,44.4010489,250,401,11,0.384024578,359,277,26,0.564465409,363,263,36,0.579872204,359,265,38,0.575320513,274,344,44,0.443365696,394,237,31,0.624405705,335,290,37,0.536
405,WOODVILLE,236,-68.4427962,45.5014105,20,87,2,0.186915888,56,50,3,0.528301887,49,57,3,0.462264151,58,47,4,0.552380952,36,69,4,0.342857143,50,56,3,0.471698113,53,53,3,0.5
406,WOOLWICH,3181,-69.8009529,43.9187038,727,943,31,0.435329341,901,723,77,0.554802956,903,711,87,0.559479554,873,737,91,0.542236025,709,896,96,0.441744548,959,658,84,0.593073593,932,684,85,0.576732673
407,YARMOUTH,8589,-70.1867227,43.8006208,2767,1857,96,0.598399654,2959,1554,207,0.655661423,3004,1505,211,0.666223109,3036,1484,200,0.671681416,2710,1776,234,0.60410165,3202,1340,178,0.704975782,3079,1444,197,0.68074287
408,YORK,13290,-70.6482581,43.1617483,4159,2635,163,0.612157786,4661,1899,397,0.710518293,4658,1877,422,0.712777353,4526,1985,446,0.695131316,4073,2387,497,0.630495356,4870,1686,401,0.742830995,4696,1813,448,0.72146259
